business,address,business_certificate,business_id,city,latitude,longitude,owner_address,owner_city,owner_name,owner_state,owner_zip,phone_number,postal_code,tax_code
CAFE X + O,1799 Church St,347603,56,SF,37.7423,-122.426,1799 CHURCH,SF,"BOUSIAKIS, ADAM",CA,94131,14155823535,94131,H24
Viking's Giant Sub,2906 Diamond St,394724,507,SF,37.7334,-122.434,2906 Diamond St,San Francisco,Steven Chang,CA,94131,null,94131,H24
POMELO ON CHURCH,1793 CHURCH St,303642,1151,SF,37.7423,-122.426,1793  CHURCH St,SF,"LIOTARD-VOGT, EMMANUEL & ROLF",CA,94131,null,94131,H24
HIGHER GROUNDS,691 CHENERY St,134909,1339,SF,37.7345,-122.434,691 CHENERY ST,SF,"JWEINAT, MANHAL S.",CA,94131,14155582933,94131,H24
PEBBLE'S CAFE,2852 Diamond St,349638,1381,SF,37.7338,-122.434,2852 DIAMOND St,SF,"LEE, SHEENA",CA,94131,14155332270,94131,H24
MARTHA & BROS. COFFEE CO,1551 Church St,303477,1641,SF,37.746,-122.427,1551 Church,SF,"Guerrero, Jaime",CA,94114,14155641166,94131,H25
Alice's Restaurant,1599 Sanchez St,307626,2664,SF,37.7436,-122.429,1599 SANCHEZ ST,SAN FRANCISCO,ALICES RESTAURANT CORPORATION,CA,94131,14155288999,94131,H25
ERIC'S RESTAURANT,1500 Church St,950880,2684,SF,37.7468,-122.427,1500  CHURCH St,SF,DLE INC.,CA,94131,14155280919,94131,H25
TYGER'S,2798 DIAMOND St,305118,2692,SF,37.7346,-122.434,2798 DIAMOND,SF,"KIM, YOUNG",CA,94131,14155234064,94131,H25
SAFEWAY #667,5290 DIAMOND HEIGHTS Blvd,24669,3819,SAN FRANCISCO,37.7441,-122.439,5290 DIAMOND HEIGHTS,SAN FRANCISCO,"SAFEWAY CORP., PETER MCGOWAN",CA,94131,14155827744,94131,H81
GLEN PARK STATION,2816 DIAMOND St,197239,4383,SF,37.7342,-122.434,2816 DIAMOND ST,SAN FRANCISCO,T.J. & R. PUB INC.,CA,94131,14155334633,94131,H86
DESTINATION BAKING COMPANY,598 Chenery St,316580,5033,SF,37.7346,-122.432,598  CHENERY St,SF,"SCHUVER, JOSEPH",CA,94131,14155460730,94131,H28
ST. JOHN'S SNACK BAR,925 CHENERY St,770180,5959,SF,37.7353,-122.438,925 CHENERY ST,SF,ST. JOHN'S SCHOOL,CA,94131,14155586144,94131,H91
TWIN PEAKS AUTO CARE,598 PORTOLA Dr,149682,7197,SF,37.7456,-122.452,598 PORTOLA DRIVE,SF,"GHARIB, MICHAEL",CA,94131,14150347354,94131,H03
BUDDIES SUPER MARKET,696 CHENERY St,352111,7225,SAN FRANCISCO,37.7346,-122.434,696 CHENERY St,SF,"PARK, JENNIE & SANG CHUL",CA,94131,14155589700,94131,H03
SUN VALLEY,1601 CHURCH St,102892,7708,SF,37.7452,-122.427,1601 CHURCH ST,SF,"RAFIDI, SHAWKI S.",CA,94131,14155283747,94131,H03
Cafe Bello,2885 Diamond St,374119,11079,SF,37.7338,-122.434,2885 Diamond St.,SF,Jane Li,CA,94131,null,94131,H24
AFC Sushi @ Safeway #667,5290 Diamond Heights Blvd,467295,17346,SF,37.7441,-122.439,5290 Diamond Heights Blvd.,SF,AFC Franchise Corporation,CA,94131,null,94131,H28
Canyon Market,2815 Diamond St,396835,22606,SF,37.7341,-122.434,2815 DIAMOND STREET,SAN FRANCISCO,CANYON MARKET,CA,94131,null,94131,H09
Chenery Market,100 CHENERY St,390812,27055,SF,37.7397,-122.426,100 Chenery Street,SF,Michael Rantisi & Nadia Rantisi,CA,94131,null,94131,H07
Choice Yakiniku,5214A Diamond Heights Blvd.,199359,28035,SF,37.7444,-122.439,816 Victoria Street,SF,Edward & Marilyn Lee,CA,94127,null,94131,H24
Gialina,2842 DIAMOND St,400449,32738,SF,37.7339,-122.434,2842 Diamond St.,SF,1959LLC,CA,94131,null,94131,H24
Regent Thai Restaurant,1700 Church St,425897,34865,SF,37.7436,-122.427,115 Hazelwood Ave.,SF,"Regent Thai, Inc.",CA,94112,null,94131,H25
Henry's Hunan Restaurant,1708 CHURCH St,433692,39888,S.F.,37.7434,-122.427,1708 Church St.,SF,"Eddy & Jeff Hunan, Inc.",CA,94131,null,94131,H25
Manzoni,2790 Diamond St,134909,60544,SF,37.7347,-122.434,2790,Diamond St.,Manhal Jweinat,SF,94131,14155332251,94131,H24
La Ciccia,291 30th St,456995,65549,SF,37.7421,-122.427,291 30th St.,SF,La Ciccia Inc.,CA,94131,null,94131,H25
Kama Sushi,1497 CHURCH St,460427,66612,SF,37.747,-122.427,1300 30th Ave,SF,C27 Sushi Lounge Inc.,CA,94122,null,94131,H25
Tataki Canyon,678 CHENERY St,464163,67919,SF,37.7346,-122.434,678 Chenery,Sf.,Tataki Investment LLC,CA,94131,14155859383,94131,H25
Cheese Boutique,660 Chenery St,144569,69291,San Francisco,37.7345,-122.433,660 Chenery Street,San Francisco,Rachid Malouf,CA,94131,null,94131,H07
"La Corneta, Inc",2834 Diamond St,355952,69475,SF,37.734,-122.434,2834 Diamond Street,San Francisco,"La Corneta, Inc",CA,94131,14155468757,94131,H26
Modern Market,1401 Church St,483371,76123,SF.,null,null,9 Mateo Ave #F,Millbrae,Taeyun Kim & Sangkyung Kim,CA,94030,14155282240,94131,H03
Rockit Swirl,2810 Diamond St,468709,76545,SF.,null,null,25 Tallwood Dr,Daly City,Mafucafo LLC,CA,94014,14155835282,94131,H28
La Nebbia,1781 Church St,484176,76832,SF,null,null,638 19th Street,San Francisco,La Nebbia Inc.,CA,94107,14155628654,94131,H26
Cup,6 Monterey Blvd,485141,77665,SF,null,null,58 Tahoe Ct #11,Walnut Creek,Ann Irmat Raie,CA,94596,14155509573,94131,H24
Creighton's Bakery Cafe,5214 D Diamond Heights Blvd,451358,78216,SF,null,null,15 Highland Ave,Daly City,Sen Thai,CA,94015,14155282366,94131,H25
Bom Dia Market,1598 Sanchez St,490850,80406,SF,null,null,1436 Adobe Drive,Pacifica,Upside Markets LLC,CA,94044,14155805519,94131,H07
Glutless,141 Marview Way,1005297,81027,SF,null,null,141 Marview Way,San Francisco,Glutless LLC,CA,94131,14155307877,94131,H98
Church Produce,1798 Church St,1006891,81863,SF,null,null,37171 Sycamore St. #117,Newark,Level 10 Profit Inc.,CA,94560,14155281153,94131,H03
Harbor Villa Restaurant,5238 Diamond Heights Blvd,1009208,82134,SF,null,null,1894 24th Ave.,SF,"S.C. Liang, Inc.",CA,94122,14155288883,94131,H26
Toast Eatery,1748 Church St,1007650,82196,SF,null,null,1748 Church St.,SF,"Toast Eatery Church St, LLC",CA,94131,14155284328,94131,H24
Glen Park Market,2900 Diamond St,148205,82217,SF,null,null,1423 Bacon St.,SF,Jung Hoon Lee,CA,94134,14155584427,94131,H07
Pretzelina LLC,4083 Cesar Chavez,1010867,82409,San Francisco,null,null,4083 Cesar Chavez St.,SF,Pretzelina LLC,CA,94131,null,94131,H99
Twin Peaks Pizza and Pasta,1681 Church St,1008457,83953,SF,null,null,1681 Church St.,SF,Twin Peaks Pizza and Pasta Inc.,CA,94131,14155699200,94131,H24
Win Garden,2794 Diamond St,1017813,84889,SF,null,null,2794 Diamond Street,San Francisco,Win Garden,CA,94131,14155268592,94131,H25
When Butter Met Sugar,101 Olympia Way,1016037,84969,San Francisco,null,null,101 Olympica Way,San Francisco,When Butter Met Sugar LLC,CA,94131,null,94131,H98
Clay Oven Indian Cuisine,1689 Church St,1021395,86658,SF,null,null,770 36 Ave,SF,Appam SF Corporation,CA,94121,14155822400,94131,H25
Noe Sushi,1740 Church St,1035843,88116,null,null,null,1740 Church St,San Francisco,S. X. Kernel LLC,CA,94131,14155370795,94131,H25
MOZZARELLA DI BUFALA PIZZERIA II,069 WEST PORTAL Ave,351750,741,SF,37.7401,-122.467,069 WEST PORTAL Ave,SF,YUMMY TUMMY L.L.C.,CA,94127,14155668900,94127,H24
RAILROAD EXPRESSO CAFE,705  Blvd,316674,994,SF,37.7315,-122.451,705  MONTEREY Blvd,SF,"SMITH, FRED",CA,94127,14155334009,94127,H24
STARBUCKS COFFEE,675 PORTOLA Dr,911744,1486,SF,37.7447,-122.453,675  PORTOLA Dr,SF,STARBUCKS COFFEE CO.,CA,94127,14155689477,94127,H25
Raintree Cafe,118 West Portal Ave,479498,1700,SF,37.7394,-122.467,252 Riviera Dr.,San Rafael,Rain Tree Café Inc.,CA,94901,14155249000,94127,H25
EL TOREADOR FONDA MEXICANA RESTAURANT,050 WEST PORTAL Ave,129476,1702,SF,37.7403,-122.466,50 WEST PORTAL AVE.,SAN FRANCISCO,"SHEELAR RESTAURANT SERVICES, INC.",CA,94127,null,94127,H25
BULLSHEAD RESTAURANT,840 ULLOA St,396972,1950,SF,37.7408,-122.466,840 Ulloa St.,SF,"Shim, Tom",CA,94127,14155664350,94127,H25
Spiazzo,033 WEST PORTAL Ave,300541,1963,SF,37.7405,-122.466,033 WEST PORTAL AVE,SF,Spiazzo Inc.,CA,94127,14155669511,94127,H25
MCCARTHY'S PORTALS,179 WEST PORTAL Ave,159824,2298,SAN FRANCISCO,37.739,-122.468,179 WEST PORTAL AVENUE,SAN FRANCISCO,"GORWKY, DONALD & MARY KING",CA,94127,null,94127,H86
NEW EMMY'S RESTAURANT,1923 OCEAN Ave,346856,2808,S.F.,37.7254,-122.463,1923 OCEAN Ave,SF,"LAU, JACKIE",CA,94127,14155728615,94127,H25
KENTUCKY FRIED CHICKEN,2040 OCEAN Ave,168521,3260,SAN FRANCISCO,37.7263,-122.465,2040 OCEAN AVE,SAN FRANCISCO,"HARMAN, PHIL & WENDY INC",CA,94127,14155580566,94127,H26
Mollie Stone's Tower Market,635 Portola Drive,307283,3677,SF,37.7449,-122.452,653 Portola Drive,SF,Albeco Inc.,CA,94127,null,94127,H08
ROUND TABLE PIZZA,737 PORTOLA Dr,352255,3678,SF,37.7442,-122.453,737 PORTOLA Dr,SF,MONT BLANC PIZZERIAS INC.,CA,94127,14155689595,94127,H25
Philosphers Club,824 ULLOA St,385202,4021,SF,37.7408,-122.465,824 Ulloa St.,SF,Philosphers Inc.,CA,94127,null,94127,H86
FRIENDS BAR,558 MONTEREY Blvd,467319,4101,SAN FRANCISCO,37.7316,-122.448,558 MONTEREY BLVD,SF,Evelyn Lam,CA,94127,null,94127,H86
MIRALOMA CLUB,749 Portola Dr,922760,4294,SF,37.7441,-122.454,749 PORTOLA DR.,SF,"KAJOUEE, HOSSEIN",CA,94127,14155561131,94127,H86
PEET'S COFFEE & TEA,054 WEST PORTAL Ave,196325,4539,SF,37.7403,-122.466,054 WEST PORTAL AVE,SF,"Peet's Coffee & Teas, Inc.",CA,94127,14155730375,94127,H28
7-Eleven Food Store,2000 Ocean Ave,194673,4545,SF,37.7262,-122.465,2000 Ocean Ave.,SF,"Patel, Mitesh",CA,94127,14155587111,94127,H28
Zanze's Cheesecake,2405 Ocean Ave,116450,4630,SF,37.7301,-122.47,2405 Ocean Ave.,SF,"Zanze, Sam",CA,94127,14155332264,94127,H28
NOAH'S NEW YORK BAGELS #2937,028 WEST PORTAL Ave,353177,4637,SF,37.7406,-122.466,"555 Zang St., Suite 300",Lakewood,Einstein and Noah Corp.,CO,80228,14155668443,94127,H28
EMPIRE THEATRE,085 WEST PORTAL Ave,342212,4667,SF,37.7399,-122.467,085 WEST PORTAL Ave,SF,"CENTURY THEATRES, INC.",CA,94127,14155664950,94127,H28
CLAREMONT SERVICES,301 CLAREMONT Blvd,352910,6421,SF,37.7406,-122.465,301 CLAREMONT Blvd,SF,TRANSBAY AUTO SERVICE INC.,CA,94127,14155665401,94127,H01
SAFEWAY #759,625 MONTEREY Blvd,24669,7744,SF,37.7315,-122.45,625 Monterey Blvd,SF,"SAFEWAY STORES, INC.",CA,94127,14155582421,94127,H10
WEST PORTAL PRODUCE MARKET,222 WEST PORTAL Ave,195649,7802,SAN FRANCISCO,null,null,222 WEST PORTAL AVE,SAN FRANCISCO,WEST PORTAL PRODUCE MARKET,CA,94127,null,94127,H03
Sushi Suki Restaurant,360 C West Portal Ave,395854,17723,SF,37.7389,-122.458,538 Vienna St.,SF,Bing Chang Cai and Shan Shan Lei,CA,94112,null,94127,H25
Que Syrah,230 West Portal Ave,377992,18268,SF,37.7386,-122.468,17 Wood St. #101,SF,"Eclectic Cup, LLC",CA,94118,null,94127,H87
Pho Ha Tien,1900 OCEAN Ave,397392,19138,SAN FRANCISCO,37.7253,-122.462,1900 Ocean Ave.,SF,"Pho Ha Tien, Inc.",CA,94127,null,94127,H24
Roti Indian Bistro,53 West Portal Ave,414472,33641,SF,37.7402,-122.466,53 West Portal Ave.,SF,"Billy G LLC, Rustom Swaleh",CA,94127,null,94127,H25
Pop's Sandwich Shop,737 Portola Dr,352255,36519,SF,null,null,737 Portola Drive,SF,"Mont Blanc Pizzerias, Inc.",CA,94127,null,94127,H24
K's Kitchen,757 Monterey Blvd,428254,38798,SF,37.7315,-122.452,757-759 Monterey Blvd.,SF,"K2008 Corporation, Becky Ling",CA,94127,null,94127,H25
Clay Oven Indian Restaurant,385 WEST PORTAL Ave,439886,60484,SF,37.7368,-122.47,385 West Portal,SF,N. Malhi (SF) Corp.,CA,94127,null,94127,H25
Greenhouse Cafe,329 WEST PORTAL Ave,448997,63258,SF,37.7375,-122.469,3217 Santiago St.,SF,"Rehman Development, LLC",CA,94116,null,94127,H24
Pizzeria Sophia,1934 OCEAN Ave,453308,64502,SAN FRANCISCO,37.7257,-122.463,1934 Ocean,SF,Ocean Street Foods Inc.,CA,94127,null,94127,H28
Bay Subway,500 Parnassus Ave,397033,65265,SF,37.7635,-122.458,1457 Lake St.,SF,Bay Subway,CA,94118,null,94127,H24
Tower Burger,729 PORTOLA Dr,464712,68159,SF,37.7441,-122.454,140 London Ct,San Bruno,Won Dae Yoon,CA,94066,null,94127,H25
AFC SUSHI at Mollie Stone's #10,635 Portola Dr,467295,68257,SF,37.7449,-122.452,19205 S Laurel Park Road,Rancho Dominguez,Advanced Fresh Concepts Franchise Corporation,CA,90220,14155661600,94127,H28
Miraloma Liquors,691 PORTOLA Dr,467878,68400,SF,37.7445,-122.453,691 Portola Dr.,San Francisco,Kim & Kwon Corp.,CA,94127,null,94127,H07
Orexi Inc.,243 WEST PORTAL Ave,184048,69217,SF,37.7384,-122.468,243 West Portal Ave.,Sf,John Loufas,CA,94127,14155863810,94127,H25
Goat Hill Pizza,170 WEST PORTAL Ave,104709,69259,SAN FRANCISCO,37.7392,-122.468,300 Connecticut Street,San Francisco,"Goat Hill, Inc",Ca,94107,14155641440,94127,H25
Tsing's Chinese Restaurant,361 WEST PORTAL Ave,470263,69486,SF,null,null,1562 41st Avenue,San Francisco,Qinglin Inc.,CA,94122,14155817297,94127,H25
Daily West Portal Xpress,36 West Portal Ave,471246,69815,SF,null,null,375 87th Street Apt #3,Day City,"Haddad, Issa",CA,94015,14155415268,94127,H03
Monterey Deli,499 Monterey Blvd,472263,70071,San Francisco,null,null,"1241 18th Ave., #3",San Francisco,Almir Zalihic,CA,94122,14155741225,94127,H07
CvS/Pharmacy #1983,701 PORTOLA Dr,455171,70120,SF,null,null,One CVS Dr.,Woonsocket,Garfield Beach CVS LLC,RI,02895,14151761500,94127,H04
Big Joe's Broiller #2,717 Monterey Blvd,367245,70216,SF,null,null,715 Monterey Blvd,San Francisco,Adriana & Peter Azar,CA,94127,14155458711,94127,H24
Burrito Loco,850 ULLOA St,466964,70434,SF,37.7409,-122.466,1667 9th Ave,SF.,Friends Dynasty Inc.,CA,94122,14155664677,94127,H24
Trattoria Da Vittorio,150 WEST PORTAL Ave,478455,70838,SAN FRANCISCO,37.7392,-122.468,"556 Prospect St., #1",San Carlos,"Italobella, Inc.",CA,94070,14150507976,94127,H25
Mccarthy's Irish Bar,046 WEST PORTAL Ave,475875,71562,SF,37.7404,-122.466,1812 47th Ave. #2,San Francisco,Nell Mccarthy's Irish Bar LLC,CA,94122,14155561412,94127,H86
Shanghai Dumpling King 2,696 Monterey Blvd,477454,71909,SF,37.7316,-122.451,696 Monterey Blvd.,San Francisco,"Run Wei, Inc.",CA,94127,14155232380,94127,H26
Kwik & Convenient,600 Monterey Blvd,393714,72153,San Francisco,null,null,600 Monterey Blvd.,San Francisco,"Nahek Enterprises, Inc.",CA,94127,14155334140,94127,H07
Miraloma Market,755 Portola Dr,424771,74010,San Francisco,null,null,2928 Diamond St. #3,S.F.,Jaein Choi,CA,94131,14155682474,94127,H07
Rice Valley,667 Monterey Blvd,462353,75229,SF.,null,null,1949 Alvina Dr.,Pleasant Hill,Rice Valley Inc.,CA,94523,14155495048,94127,H26
Quickly,44 West Portal Ave,1017729,77669,SF,null,null,257 Dannis Dr.,Daly City,GHSW and Associates Inc,CA,94015,14155343905,94127,H25
Submarine Center,820 Ulloa St,488823,78727,SF,null,null,64 Forest View Dr.,San Francisco,"Submarine Center, LLC.",CA,94132,14155561455,94127,H24
HelioRoast,161 Evelyn Way,468079,79222,San Francisco,null,null,161 Evenlyn Way,San Francisco,Kern R. Trembath,CA,94127,null,94127,H99
Creightons Cheese and Fine Foods,673 Portola Dr,490906,79563,SF,null,null,2223 25th Ave.,San Francisco,Theary C. Wong,CA,94116,14155750750,94127,H25
"Calibur, Inc.",68 West Portal Ave,1002172,79661,SF,null,null,20 Peralta Ave.,SF,"Calibur, Inc",CA,94110,14155775799,94127,H25
TinyB Chocolate,190 Evelyn Way,1002621,79967,SF,null,null,190 Evelyn Way,SF,Andrei Stoica,CA,94127,14150648899,94127,H99
Peek-a-Boo Factory,2 West Portal Ave,1001597,80292,SF,null,null,310 Stoneridge Ln,SF,"Peekaboo Factory, Inc",CA,94134,14155786970,94127,H03
Toast Eatery,160 West Portal Ave,1006694,80417,SF,null,null,96 Inverwess Dr,SF,"Toast Eatery S.F.W.P., LLC",CA,94132,14155602318,94127,H25
VinDebut LLC,9 West Portal Ave,444928,80819,SF,null,null,9 West Portal Avenue,Sab Francisco,Vin Debut LLC,CA,94127,14155351136,94127,H26
Rainbow T Dessert,1939 Ocean Ave,1005289,80894,SF,null,null,1939 Ocean Ave.,San Francisco,Rainbow T Dessert Inc.,CA,94127,14155328422,94127,H24
Chaiya Thai Restaurant,272 Claremont Blvd,1016992,83097,SF,null,null,624 St. Francis Blvd,Daly City,Chaiya Thai Corporation,CA,94015,14155990345,94127,H25
Zest LLC,316 San Benito Way,1015339,84000,San Francisco,null,null,316 San Benito Way,San Francisco,Zest LLC,CA,94127,null,94127,H99
Joe's Excellent Chinese Cuisine,1919 Ocean Ave,1019539,85383,SF,null,null,816 Lausanne Ave,Daly City,Kyle Ka Hoo Li,CA,94014,14155581919,94127,H25
Won Kok Restaurant,700 Monterey Blvd,1022103,86076,SF,null,null,59 Stoneyford Ave,SF,Won Kok Restaurant,CA,94112,14155581826,94127,H26
The Dubliner West Portal,328 West Portal Ave,1022556,86145,SF,null,null,6 Wilshire Court,Daly City,Lost In The Fog LLC,CA,94015,14155569444,94127,H86
The Manor,321 A West Portal Ave,1029431,86692,SF,null,null,164 Galewood Circle,SF,Manor Social Club LLC,CA,94131,14155662468,94127,H25
Blue Iguana,600 Monterey Blvd,483574,86742,San Francisco,null,null,62 Staples Avenue,San Francisco,LHO Inc,CA,94131,null,94127,H79
Joyful Kitchen,1919 Ocean Ave,1037710,88340,null,null,null,1919 Ocean Avenue,San Francisco,Joyful Yummy Inc,CA,94127,14155331919,94127,H25
J.B.'S PLACE,1435 17th St,957402,88,S.F.,37.765,-122.398,21 OAKRIDGE DR.,DALY CITY,"NASRAH, NASSER I. & NAIEL I.",CA,94015,null,94107,H24
JIM'S SMOKE SHOP,600 20th St,188024,200,S.F.,37.7606,-122.388,100 FONT BLVD. #1-J,S.F.,KYU HO LEE,CA,94132,null,94107,H24
HOUSE OF HUNAN,2 Townsend St,376116,413,S.F.,37.7579,-122.394,1512 CALIFORNIA ST. #2,S.F.,"HO, WAI KING & ZHU, LAING MEI",CA,94109,null,94107,H24
CHATZ,301 ARKANSAS St,385681,424,S.F.,37.7623,-122.398,294 Santa Monica Avenue,Menlo Park,"CYRYZ, Inc.",CA,94025,null,94107,H28
APERTO RESTAURANT,1434 18th St,921479,765,S.F.,37.7626,-122.397,245 LAWTON ST.,S.F.,APERTO INC.,CA,94122,null,94107,H24
MOSHI MOSHI,2092 03rd St,151178,768,S.F.,37.7632,-122.389,1450 VAN NESS AVE.,S.F.,"AKINAI, INC.",CA,94109,null,94107,H24
MARIPOSA HUNTERS POINT YACHT CLUB,405 TERRY FRANCOIS Blvd,779055,773,S.F.,37.7733,-122.387,405 TERRY FRANCOIS Blvd,S.F.,"MARIPOSA HUNTERS POINT YACHT CLUB, INC.",CA,94107,null,94107,H24
BAY VIEW BOAT CLUB,429 Terry Francois St,779056,774,S.F.,37.7727,-122.387,429 CHINA BASIN,S.F.,BAY VIEW BOAT CLUB,CA,94107,null,94107,H24
MONTE CRISTO SOCIAL CLUB,136 MISSOURI St,484699,782,S.F.,37.7646,-122.397,136 LISBON,S.F.,"MONTE CRISTO SOCIAL CLUB, INC.",CA,94112,14150770519,94107,H23
EDEN PLAZA CAFE,600 HARRISON St,316211,811,S.F.,37.784,-122.396,800 HACIENDA ST.,MILLBRAE,"NASRA, ELIAS; RIMA; REEM; HELEN & MIKE",CA,94030,null,94107,H28
A2 CAFE,450 IRWIN St,331213,1482,S.F.,37.7672,-122.399,235 BAY RIDGE DR.,DALY CITY,"DRENG, KIM",CA,94014,null,94107,H24
ZEKE'S DIAMOND BAR,600 03rd St,924375,1490,S.F.,37.78,-122.394,709 Lake Street,S.F.,"ZEKE'S DIAMOND BAR, INC.",CA,94118,null,94107,H25
AT&T - Cognac Bar/ KITCHEN Room3232 [145080],24 WILLIE MAYS PLAZA 3.28.01,303652,1515,S.F.,37.7784,-122.391,1 INDEPENDENCE POINTE #305,GREENVILLE,VOLUME SERVICES INC,SC,29615,14155971500,94107,H25
AT&T - FIELD CLUB KITCHEN [145082],24 WILLIE MAYS PLAZA 1.11.04,303652,1516,S.F.,37.7784,-122.391,1 INDEPENDENCE POINTE #305,GREENVILLE,VOLUME SERVICES INC,SC,29615,14155971500,94107,H25
AT&T -in-seat service KITCHEN/Press Dining [145081],24 WILLIE MAYS PLAZA 3.12.05,303652,1517,S.F.,37.7784,-122.391,1 INDEPENDENCE POINTE #305,GREENVILLE,VOLUME SERVICES INC,SC,29615,14155971500,94107,H25
CITY'S CHOICE,301 05th St,315787,1527,S.F.,37.7803,-122.403,80 PEABODY STREET,S.F.,"YANG, DE XI",CA,94134,14155891888,94107,H24
STARBUCKS,490 BRANNAN St,911744,1529,S.F.,37.7787,-122.396,P.O. BOX 34067-STAX,SEATTLE,STARBUCKS COFFEE CO.,WA,98124,14155240256,94107,H25
BRICK HOUSE CAFE,426 BRANNAN St,381337,1613,S.F.,37.7795,-122.395,426 Brannan St.,S.F.,Frederick B. Reeves,CA,94107,null,94107,H25
Just For You Cafe Inc.,732 22ND St,426156,1671,S.F.,37.7579,-122.389,535 McLaughlen St.,Richmond,Just For You Café Inc.,CA,94805,null,94107,H25
PRIMO PATIO CAFE,214 Townsend St,923419,1677,S.F.,37.7786,-122.393,150 College Ave.,S.F.,"Kelton, Christopher & Noel",CA,94112,14155951129,94107,H25
FRINGALE,570 04th St,207610,2145,S.F.,37.7787,-122.397,1269 DOLORES #3,S.F.,"FRINGALE, INC.",CA,94103,null,94107,H25
HARD KNOX CAFE,2526 03rd St,339611,2152,S.F.,37.7576,-122.388,444 HIGATE DR.,DALY CITY,"HUA, TONY C.",CA,94014,null,94107,H25
GOAT HILL PIZZA,300 CONNECTICUT St,104709,2156,S.F.,37.7624,-122.398,651 33RD AVE,S.F.,"DEANDRADE P. LIPSKI, ET. AL.",CA,94121,null,94107,H25
SB40/Carmens Restaurant,Pier 40 The Embarcadero,4965,2579,S.F.,37.7816,-122.388,39 MAJESTIC AVE.,S.F.,Benito Solis,CA,94112,null,94107,H25
LEE'S DELI,303 02nd St,147648,2778,S.F.,37.785,-122.396,3875 LOS ARABIS DR.,LAFAYETTE,"STERLING M. ENTERPRISES, INC.",CA,94549,null,94107,H25
AT&T - MAIN KITCHEN/SUITE LEVEL [145084],24 WILLIE MAYS PLAZA 4.10.03,303652,2861,S.F.,37.7784,-122.391,1 INDEPENDENCE POINTE #305,GREENVILLE,VOLUME SERVICES INC,SC,29615,14155971500,94107,H26
MOMO'S,760 02nd St,316853,2885,S.F.,37.78,-122.39,760 2ND ST,SAN FRANCISCO,GOLDEN BEAR REST ASSN LLC,CA,94107,null,94107,H26
Public House/Mijita,24 WILLIE MAYS PLAZA,168329,2899,S.F.,37.7784,-122.391,24  WILLIE MAYS PLAZA,S.F.,BON APPETIT MANAGEMENT CO.,CA,94107,null,94107,H26
KOH SAMUI & THE MONKEY,415 BRANNAN St,326368,2973,S.F.,37.7798,-122.395,350 GREENWICH ST.,S.F.,"THAI SPEED, INC.",CA,94133,14155579885,94107,H26
CHA-AM RESTAURANT,701 FOLSOM St,921051,3065,S.F.,37.7837,-122.399,1400 GLENDALE,BERKELEY,TAVEE POKKASUB CO.,CA,94708,14155549710,94107,H26
FLOWER MARKET CAFE,698 BRANNAN St,185618,3070,S.F.,37.7757,-122.4,219 14TH AVENUE,S.F.,"BECHELLI, MARK & ROSSI, ROBERT",CA,94118,14155497162,94107,H26
"HOTEL UTAH SALOON, THE",500 04th St,374488,3072,S.F.,37.7795,-122.398,500  4TH St,S.F.,"UTAH SALOON, LLC",CA,94107,null,94107,H26
DELANCEY ST. RESTAURANT,600 EMBARCADERO St,933247,3073,S.F.,37.7839,-122.388,2563 DIVISADERO ST.,S.F.,DELANCEY STREET FOUNDATION,CA,94115,null,94107,H26
TOWN'S END RESTAURANT & BAKERY,2 TOWNSEND St,204051,3102,S.F.,37.7819,-122.388,2  TOWNSEND ST,S.F.,"SPERBER, DAVID",CA,94107,14155510749,94107,H26
21ST AMENDMENT BREWERY CAFE,563 02nd St,310896,3397,S.F.,37.7824,-122.393,563  2ND St,S.F.,"21ST AMENDMENT BREWERY CAFÉ, LLC",CA,94107,null,94107,H26
"CANTON DIM SUM HOUSE, INC.",655 Folsom St,320342,3456,S.F.,37.7846,-122.398,933 SACRAMENTO ST.,S.F.,"CANTON DIM SUM HOUSE, INC.",CA,94108,null,94107,H26
RESTAURANT LULU,812 FOLSOM St,933484,3457,S.F.,37.7816,-122.402,816 FOLSOM ST,SAN FRANCISCO,RESTAURANT LULU INC,CA,94107,14155495775,94107,H26
3rd Street Grill,695 03rd St,387389,3864,S.F.,37.7791,-122.393,1635 11th Avenue,SF,"Gordon, Victoria L. & Rochin, Luis F.",CA,94122,null,94107,H29
MCDONALD'S,701 03rd St,928174,3896,S.F.,37.7788,-122.393,"5 THOMAS MELLON CIRCLE, SUITE 220",S.F.,"RODRICK FOODS, INC.",CA,94134,null,94107,H29
PARAGON RESTAURANT & BAR,701 02nd St,330032,3955,S.F.,37.7805,-122.39,"591 REDWOOD HWY, SUITE 5295",MILL VALLEY,SF PARAGON RESTAURANT PARTNERS L.P.,CA,94941,null,94107,H26
CROSSROADS CAFE,699 DELANCEY St,933247,3962,S.F.,37.783,-122.389,600  EMBARCADERO,S.F.,DELANCEY ST. FOUNDATION,CA,94107,null,94107,H26
AT&T - CLUB BAR #2 Room 3220 [145085],24 WILLIE MAYS PLAZA 3.16.01,303652,3976,S.F.,37.7784,-122.391,1 INDEPENDENCE POINTE #305,GREENVILLE,VOLUME SERVICES INC,SC,29615,14155971500,94107,H86
AT&T - CLUB BAR #1 [145086],24 WILLIE MAYS PLAZA 3.07.02,303652,3978,S.F.,37.7784,-122.391,1 INDEPENDENCE POINTE #305,GREENVILLE,VOLUME SERVICES INC,SC,29615,14155971500,94107,H86
BLOOMS SALOON,1318 18th St,135198,3987,S.F.,37.7627,-122.396,793 BEECH WOOD DR.,DALY CITY,"MISSOURI SALVAGE, INC",CA,94015,null,94107,H86
SOUTH BEACH YACHT CLUB,PIER 40,478511,4171,S.F.,37.7816,-122.388,"2000 Sierra Point Parkway, Suite 100",Brisbane,"SOUTH BEACH YACHT CLUB, INC",CA,94005,null,94107,H26
BOTTOM OF THE HILL,1233 17th St,414825,4400,S.F.,37.7651,-122.396,1233 17TH STREET,SAN FRANCISCO,BOTTOM OF THE HILL INC,CA,94107,14150204876,94107,H87
BRANNAN STREET CAFE,274 BRANNAN St,304703,4512,S.F.,37.7823,-122.391,2401 WHITMAN WAY,SAN BRUNO,"HANHAN, REMONDE; GEORGE; JUMANA AND LUTFI",CA,94066,14155546562,94107,H28
BAYSIDE MARKET,120 BRANNAN St,114128,4774,S.F.,37.7842,-122.389,1186 TOURNAMENT DR.,HILLSBOROUGH,"R.J. PESUSIC, INC.",CA,94010,14155220151,94107,H28
SOUTH BEACH CAFE,800 EMBARCADERO St,343357,4777,S.F.,37.7816,-122.388,800 THE EMBARCADERO,SAN FRANCISCO,SOUTH BEACH CAFÉ INC.,CA,94107,null,94107,H28
CANTON DIM SUM HOUSE,655 Folsom St,320342,4782,S.F.,37.7846,-122.398,933 SACRAMENTO ST.,S.F.,"CANTON DIM SUM HOUSE, INC.",CA,94108,null,94107,H25
SOUTH PARK CAFE,108 SOUTH PARK St,158228,4791,S.F.,37.7816,-122.394,511 CENTRAL AVE.,S.F.,"SOUTH PARK CAFÉ, INC.",CA,94117,null,94107,H28
VICTOR'S,210 TOWNSEND St,192087,4794,S.F.,37.7786,-122.393,210 TOWNSEND STREET,S.F.,"DAVID O. MORENO, ET. AL.",CA,94107,14155607018,94107,H28
LATTE EXPRESS,648 04th St,387369,5129,S.F.,37.7777,-122.396,1020 AVALON AVENUE,FOSTER CITY,"TAING, STEVEN Y.",CA,94404,null,94107,H29
GLOBAL GOURMET CATERING,1030 ILLINOIS St,325904,5232,S.F.,37.7589,-122.387,1254 SO. VAN NESS,S.F.,"AVATAR FOOD INTERNATIONAL, INC.",CA,94110,null,94107,H30
BETTY ZLATCHIN CATERING,1177 INDIANA St,339893,5254,S.F.,37.7555,-122.391,1342 MASONIC,S.F.,"BETTY ZLATCHIN CATERING, LLC",CA,94117,null,94107,H30
24 HOUR FITNESS CENTER,1645 BRYANT St,149132,6426,S.F.,37.7663,-122.411,5020 FRANKLIN DRIVE,PLEASANTON,"FITNESS HOLDINGS, INC.",CA,94588,14155434188,94107,H01
M & W MARKET,1800 23rd St,936720,6520,S.F.,37.7549,-122.398,1800  23RD ST,S.F.,"NASSER, MOHAMAD",CA,94107,null,94107,H03
POTRERO TERRACE MARKET,990 WISCONSIN St,142920,6521,S.F.,37.7549,-122.399,990 WISCONSIN STREET,S.F.,"WOO, FONG & EDMUND & MARY",CA,94107,null,94107,H07
RENO'S LIQUOR,728 22nd St,416476,6607,S.F.,37.758,-122.389,1 Madrone Way,Pacifica,"SHOUMAN, GADAH & Dames",CA,94044,null,94107,H03
NEW POTRERO MARKET,1301 18th St,439327,6671,S.F.,37.7626,-122.396,3280 DUBLIN DR.,SO.S.F.,"HAN HAN, ELIAS K.",CA,94080,null,94107,H03
BOW-K LIQUORS,700 04th St,128803,6914,S.F.,37.7771,-122.395,68 6TH AVENUE,S.F.,"SOUZA, HAROLD",CA,94118,null,94107,H03
MOSCONE SHELL,300 05th St,138907,7138,S.F.,37.7802,-122.403,4298  MISSION St,S.F.,"WONG, WILL Y.",CA,94112,null,94107,H01
ALL STATES BEST FOODS,1607 20th St,428067,7366,S.F.,37.7599,-122.398,141 Gladstone Dr.,S.F.,"GHANMA, KHALED",CA,94112,null,94107,H07
KANSAS FOOD MARKET,2250 23rd St,121610,7433,S.F.,37.7546,-122.402,335 Cambridge St.,S.F.,"NASSER, AHMAD",CA,94134,null,94107,H03
BRYANT SHELL #4,598 BRYANT St,911437,7608,S.F.,37.7798,-122.398,598 Bryant Street,San Francisco,AMSIA MGT. CORP.,CA,94107,null,94107,H07
JOLT N' BOLT,2325 03rd St 100,305525,7857,S.F.,37.7599,-122.388,2325 3RD ST #100,SAN FRANCISCO,JOLT N BOLT BAKERY & CAFE INC,CA,94107,null,94107,H24
COSTCO WHOLESALE,450 10th St,924888,7997,S.F.,37.7709,-122.411,450 10TH ST,S.F.,COSTCO WHOLESALE CORP,CA,94103,null,94107,H26
MEXICO AU PARC,24 SOUTH PARK STREET,370461,9156,SAN FRANCISCO,37.7822,-122.393,355 BUENA VISTA AVE.,SAN FRANCISCO,MEXICO AU PARK INC.,CA,94117,null,94107,H25
Whole Foods Market,399 04th St,955047,9948,S.F.,37.7809,-122.4,P.O. Box 684786,Austin,"WHOLE FOODS MARKET CALIFORNIA, INC.",TX,78768,null,94107,H83
AMICI'S EAST COAST PIZZERIA,216 KING STREET,928584,10127,S.F.,37.7778,-122.392,69 E. THIRD AVE.,SAN MATEO,"AMICI'S EAST COAST PIZZERIA, INC.",CA,94401,null,94107,H26
THE GLAS KAT,520 04th St,315323,11594,S.F.,37.7792,-122.398,2414 LOMBARD ST.,S.F.,"NU CONCEPTS MANAGEMENT GROUP, INC.",CA,94123,null,94107,H26
"LESLIE A. HENNESSY, INC.",545 02nd St,112731,13218,S.F.,37.7825,-122.393,545 2nd St.,San Francisco,LESLIE A. HENNESSY INC.,CA,94107,null,94107,H07
SAFEWAY #2606,298 KING STREET,24669,13428,S.F.,37.7765,-122.394,PO BOX 29096 MS#6516,PHOENIX,"SAFEWAY, INC.",AZ,85038-9096,null,94107,H81
AFC SUSHI @SAFEWAY 2606,298 KING STREET,467295,13671,S.F.,37.7765,-122.394,19205 S. Laurel Park Rd.,Rancho Dominguez,AFC Franchise Corp.,CA,90220,null,94107,H28
SUBWAY #30196,700 04th St,443129,14071,S.F.,37.7769,-122.395,700 4TH ST STE 111,SAN FRANCISCO,SUBWAY AT 4TH & KING INC,CA,94107,null,94107,H29
Neill's Grocery & Liquor,521 03rd St,379766,16673,SF,37.7811,-122.395,521 3rd Street,SF,"Neill's Grocery & Liquor, Inc.",CA,94107,null,94107,H03
Tres Agaves,130 Townsend St,395383,17570,SF,37.7801,-122.391,130 Townsend St.,SF,"Tres Agaves, LLC",CA,94107,null,94107,H26
Jack's Market,471 03rd St,391101,18462,S.F.,37.7816,-122.396,471 3rd Street,SF,Jack's Market Inc.,CA,94107,14150297778,94107,H07
Nama Sushi,227 King St,438893,19041,SF,37.7774,-122.392,227 KING STREET,SAN FRANCISCO,NAMA JAPANESE CUISINE-SF INC,CA,94107,14155492007,94107,H25
Hazel's Kitchen,1319 18th St,392670,20291,SF,37.7626,-122.396,264 MISSOURI St.,S.F.,"GOLDBERG, LESLIE",CA,94107,null,94107,H28
Pazzia Restaurant,337 03rd St,383426,21143,S.F.,37.7833,-122.398,337 3rd Street,SF,"Pazzia, Inc.",CA,94107,null,94107,H24
Chiotras Grocery,858 RHODE ISLAND St,401324,22671,S.F.,37.7589,-122.402,858 Rhode Island St.,SF,"Bullard, Elizabeth",CA,94107,null,94107,H07
Yield,2490 03rd St,398138,23557,SF,37.7581,-122.389,2490 3rd St.,SF,Morena Wine LLC,CA,94107,null,94107,H87
District,216 Townsend St,399804,24534,SF,37.7785,-122.393,216 Townsend St.,SF,Thirty 8 North LLC   John D'Angelica,CA,94107,null,94107,H26
The New Spot Inc.,632 20th St,445659,24978,S.F.,37.7605,-122.388,632 20th Street,SF,"Julia Rivera, Gilberth Cab",CA,94107,14155421350,94107,H24
The Sandwich Shop,635 19th St,402498,28828,S.F.,37.7617,-122.389,635 19th Street,SF,Hye Hwa Cho,CA,94107,null,94107,H28
Phil'z Coffee,201 Berry St,415140,33709,San Francisco,37.7755,-122.394,1258 Minnesota Street,San Francisco,"Philz Coffee, Inc",CA,94107,null,94107,H24
Thee Parkside,1600 17th St,413316,33851,San Francisco,37.765,-122.4,1600-17th St,San Francisco,"Jack of Hearts, LLC   Malia Spanyol",CA,94107,14155251330,94107,H25
California Spirit,Pier 40 Embarcadero,417541,34332,San Francisco,37.7579,-122.394,"2000 Sierra Point Pkwy, Suite 100",Brisbane,Yacht Connections International,CA,94005,14155407274,94107,H24
Pete's Tavern,128 KING STREET,418368,34728,San Francisco,37.7793,-122.391,760 02nd Street,San Francisco,Golden Bear Restaurant Company II,CA,94107,null,94107,H26
Left Coast Catering and Cafe,2152 03rd St,404641,35503,San Francisco,37.7624,-122.389,2152 3rd Street,SF,Laurine Wickett,CA,94107,null,94107,H30
Starbucks,1700 Owens Street,911744,35790,SF,37.7677,-122.394,"Starbucks License Services, P.O. Box 34442 - Tax 2",Seattle,Starbucks,WA,98124,null,94107,H25
Umi,1328 18th St,397001,35812,S.F.,37.7627,-122.396,1328 18th Street,San Francisco,Skip Jack Sushi Inc,CA,94107,null,94107,H24
Lava Restaurant & Lounge,527 BRYANT St,425287,35855,S.F.,37.7807,-122.397,660 4th St. #328,SF,The Great 8 Group,CA,94107,null,94107,H25
Peet's Coffee & Tea,370 04th St,196325,37688,SF,37.7811,-122.4,1400 Park Ave.,Emeryville,"Peet's Coffee & Tea  Pat O'Dea, President",CA,94608,null,94107,H25
Epicenter Cafe LLC,764 Harrison St,427763,38091,SF,37.7814,-122.399,764 Harrison St.,SF,Epicenter Café LLC,CA,94107,14155545436,94107,H25
Zare At Fly Trap,606 FOLSOM St,431148,38479,S.F.,37.7854,-122.397,606 Folsom Street,SF,Fly Trap Zare LLC,CA,94107,null,94107,H26
Chili Lemon Garlic,518 Bryant St,449644,38564,San Francisco,37.7809,-122.396,518 Bryant St.,Sf,"Chili Lemon Garlic, LLC",CA,94107,null,94107,H24
Third & Townsend Corner Store,699 03rd St,431334,38898,S.F.,37.7789,-122.393,43 Vallejo Dr.,Millbrae,"Chun, Yoohwan & Chun, Yooja",CA,94030,null,94107,H03
Darwin Cafe,212 Ritch St,450037,39528,SF,37.7806,-122.396,212 RITCH ST.,SAN FRANCISCO,DARWIN CAFÉ LLC,CA,94107,null,94107,H24
Tsunami Mission Bay,301 King St,426641,40227,SF,37.7758,-122.394,1300 Fulton Street,SF,South Beach Lounge Inc.,CA,94117,null,94107,H25
Goat Hill Pizza,171 Stillman St,104709,58574,San Francisco,37.7805,-122.398,171 Stillman St,San Francisco,Goat Hill Inc   Philip DeAndrade,CA,94107,null,94107,H24
San Francisco Tennis Club,645 05th St,438246,58745,S.F.,37.7761,-122.398,645 05th Street,SF,"WAC SFTC Holding, LLC",CA,94107,null,94107,H28
The Butler & The Chef Bistro,155A SOUTH PARK St,440466,58945,S.F.,37.7809,-122.394,155A South Park Ave.,SF,Green Bistro LLC,CA,94107,null,94107,H25
Sunflower Potrero Hill,288 CONNECTICUT St,308034,60331,S.F.,37.7626,-122.398,2721 Hyde Street,Sf,Grandeho's Inc.,Ca,94109,null,94107,H25
HRD Coffee Shop Inc.,521 03rd St A,441146,61324,S.F.,37.7811,-122.395,521 3rd Street #A,SF,HRD Coffee Shop Inc.,CA,94107,null,94107,H25
Ozone Thai Restaurant and Lounge,598 02nd St,442050,61436,S.F.,37.7819,-122.392,598 2nd Street,Sf,Ozone Thai Restaurant and Lounge Inc.,CA,94107,null,94107,H25
Pera,1457 18th St,443140,61460,S.F.,37.7625,-122.397,1457 18th Street,SF,Babylon Restaurants LLC,CA,94107,null,94107,H24
Ruchi,474 03rd St,443702,61471,S.F.,37.7815,-122.396,12 Cragmont Ct.,Pacifica,Chinmaye Kakuturu,CA,94044,null,94107,H24
Dartealing Lounge,470 03rd St  #101B,385354,61563,SF,37.7816,-122.396,"470 3rd St., #101B",SF,"TN2, Inc.",CA,84107,null,94107,H25
The American Grilled Cheese,1 South Park  Suite 103A,439752,61612,San Francisco,37.7823,-122.393,1355 Oak St.,San Francisco,Project Cheese LLC,CA,94117,null,94107,H24
What's Up Dog! Folsom Street,699 Folsom St,451014,61923,SF,37.7838,-122.399,2906 Yorba Street,SF,Nicholas Louie,CA,94116,null,94107,H24
Osha Thai Restaurant & Lounge,311 03rd St,384547,61989,S.F.,37.7837,-122.399,"301 Main Street, Unit 18A",San Francisco,New Osha Thai Inc,CA,94105,14155896742,94107,H26
Mr. and Mrs. Miscellaneous,699 22nd St,445864,62251,SF,37.7579,-122.388,699 Mississippi Street #101,SF,Annabelle Topacio,CA,94107,null,94107,H24
Papito,317 Connecticut St,456280,62631,SF,37.7623,-122.397,317 Connecticut St.,SF,La Esquina LLC,CA,94107,null,94107,H24
SF Third Street Shell,551 03rd St,448235,62779,SF,37.7807,-122.395,41805 Albrae Street,Fremont,"Au Energy, LLC",CA,94538,null,94107,H07
Potrero Shell,2890 03rd St,448325,62780,SF,37.753,-122.388,41805 Albrae Street,Fremont,"Au Energy, LLC",CA,94538,null,94107,H07
Poquito,2368 03rd St,451991,62888,S.F.,37.7596,-122.389,2368 3rd Street,Sf,"Tacos N' Tequila, LLC",CA,94107,null,94107,H25
Alexander's Steakhouse,448 BRANNAN St,450593,63191,S.F.,37.7792,-122.396,448 Brannan St.,SF,James JC Chen,CA,94107,null,94107,H26
Zesty Restaurant,850 FOLSOM St,344151,63208,S.F.,37.7811,-122.402,850 Folsom Street,SF,Triple Crown Inc.,CA,94107,null,94107,H26
Plow,1299 18th St,451789,63304,SF,37.7626,-122.396,1299 18th Street,SF,"Plow, LLC",CA,94107,null,94107,H24
Dave's Food Store,1601 20th St,452611,63864,S.F.,37.7599,-122.397,1601 20th Street,SF,Isam Darwish,CA,94107,null,94107,H07
The Culinary Edge,75 Oak Grove St,357448,64157,SF,37.7773,-122.402,75 Oak Grove St.,SF,The Culinary Edge,CA,94107,null,94107,H30
Dogpatch Cafe,2295 03rd St,452683,64242,SF,37.7606,-122.388,2295 3rd Street,SF,Dogpatch Café LLC,CA,94107,null,94107,H25
Twenty Five Lusk,25 Lusk St,452857,64384,SF,37.7784,-122.394,25 Lusk Street,SF,"Bourdolan 25 Lusk, LLC",CA,94107,null,94107,H26
Basic,510 BRANNAN St,446069,64741,S.F.,37.7781,-122.397,510 Brannan St.,SF,"Three Nine Entertainment, Inc.",CA,94107,null,94107,H86
Piccino,1001 Minnesota St,394578,65241,SF,37.7578,-122.39,1001 Minnesota St.,SF,Early Girls LLC,CA,94107,null,94107,H25
Subway#51109,170 King St #131,457591,65754,SF,37.7787,-122.391,119 Penhurst Ct.,Daly City,Sardool Samra,CA,94015,null,94107,H24
Alfred Schilling Catering,1661 Tennessee St Suite 3B,445593,66198,null,37.7507,-122.388,"555 John Muir Dr., B608",SF,Alfred D. Schilling,CA,94132,null,94107,H30
Java House LLC,PIER 40,456570,66522,S.F.,null,null,Pier 40,SF,Java House LLC  Maria Moustakis,CA,94107,null,94107,H24
Kara's Cupcakes,2565 03rd St #334,402542,66583,SF,37.7571,-122.388,3249 Scott Street,SF,Kara's Cupcakes Inc.,CA,94123,null,94107,H33
Palio Cafe,2565 03rd St Ste. 307,381957,66902,SF,37.7571,-122.388,505 Montgomery St.,SF,"Paninoteca, Inc.   Bettie Scodel",CA,94111,null,94107,H30
Deli Board,1058 Folsom St,484819,66925,San Francisco,37.7775,-122.407,1080 Howard St.,SF,Deli Board LLC,CA,94103,null,94107,H26
Zcrepes,1700 Owens Street,458394,67160,SF,37.7677,-122.394,80 Miraflores Ave.,San Rafael,Zcaffeinated Inc.,CA,94901,null,94107,H24
La Jefa,445 Bayshore Blvd,470392,67237,SF,37.7499,-122.406,574 3rd St. #205,SF,Mario Delgado,CA,94107,null,94107,H79
S & S Brand,701 02nd St,462846,67591,SF,37.7751,-122.468,"2 Townsend Street, #2-603",SF,"SOS Spice Co., Inc.",CA,94107,null,94107,H74
Esposto's Deli,1700 Owens St,464674,67615,SF,37.7677,-122.394,"360 Shaw Rd., #C",South San Francisco,Esposto's - SF LLC,CA,94080,null,94107,H26
Recchiuti Confections,807 22nd St,362327,67661,SF,37.7578,-122.389,"2565 3rd Street, Suite 225",San Francisco,Confections by Michael Recchiuti LLC,CA,94107,null,94107,H03
Recchiuti Chocolate Lab,801 22nd St,362327,67864,SF,null,null,"2565 3rd Street, Suite 225",San Francisco,Confections by Michael Recchiuti LLC,CA,94107,null,94107,H24
Dogpatch Wineworks,2455 03rd St,464519,67937,SF,37.7586,-122.388,2455 3rd St.,SF,Dogpatch Wineworks,CA,94107,null,94107,H03
Focaccia Market Bakery,185 BERRY St #1430,455335,68037,S.F.,37.776,-122.393,"182 Howard St, #403",SF,"Focaccia Market Bakery, Inc.",CA,94105,null,94107,H26
Gilberth's Rottiserie & Grill,2427 03rd St,464780,68105,SF,37.7589,-122.388,632 20th St.,Sf,Julia Posada,CA,94107,null,94107,H25
Cento 330 Ritch Street,372 Ritch St,302119,68146,SF,37.7787,-122.394,572 3rd Ave.,SF,John Quintos,CA,94118,null,94107,H24
SF Soup Co.,185 Berry St,358709,68226,SF,37.776,-122.393,451 6th St.,SF,Steve Sarver,CA,94103,null,94107,H79
Lucky Strike San Francisco LLC,200 King St,466116,68362,SF,37.7782,-122.392,15260 VENTURA BLVD. #1110,SHERMAN OAKS,FOSTERS CREATIVE ENTERTAINMENT CNCP,CA,91403,null,94107,H26
Ganim's Market,1135 18th St,465643,68407,S.F.,37.7627,-122.394,95 Exeter St.,SF,ICAM Group,CA,94124,null,94107,H24
Bon Appetit @ Adobe,601 TOWNSEND STREET,168329,68431,S.F.,37.7717,-122.402,"100 Hamilton Avenue, Suite 400",Palo Alto,Bon Appetit Management Company,CA,94301,null,94107,H26
Ruby Wine,1419 18th St,466571,68596,S.F.,37.7625,-122.397,1419 18th St.,SF,Aran Healy,CA,94107,null,94107,H03
Tres Truck,130 Townsend St,395383,68649,SF,37.7801,-122.391,1880 PLEASANT VALLEY AVE,OAKLAND,TRES AGAVES LLC,CA,94611,null,94107,H79
La Briciola  Restaurant,489 03rd St,468945,68753,S.F.,37.7815,-122.396,489 3rd St.,SF,"Sapienza and Toschi, Inc.",CA,94107,null,94107,H26
Small Foods,522 02nd St,449979,68813,SF,37.7828,-122.393,522 2nd St.,SF,Simply Smart Foods LP,CA,94107,null,94107,H07
Farley's,1315 18th St,459557,68814,S.F.,37.7637,-122.466,33 Grand Ave.,Oakland,"Grace Skye, LLC",CA,94612,null,94107,H24
Harvey's Place,330 05th St,466417,68824,S.F.,37.7798,-122.403,330 5th St.,San Francisco,Anum Malik,CA,94107,null,94107,H07
AT&T PARK - NEW DERBY GRILL,24 Willie Mays Plaza,303652,69044,null,null,null,201 East Broad Street,Spartanburg,"Volume Services America, Inc.",South Carolina,29306,null,94107,H36
AT&T PARK - NEW VENDING ROOM,24 Willie Mays Plaza,303652,69045,null,null,null,201 East Broad Street,Spartanburg,"Volume Services America, Inc.",South Carolina,29306,null,94107,H36
AT&T PARK - WINE CART,24 Willie Mays Plaza,303652,69047,null,null,null,201 East Broad Street,Spartanburg,Volume Services America. Inc.,South Carolina,29306,null,94107,H36
AT&T PARK - 1ST BASE CARVERY,24 Willie Mays Plaza,303652,69048,null,null,null,201 East Broad Street,Spartanburg,"Volume Services America, Inc.",South Carolina,29306,null,94107,H36
AT&T PARK - ANCHOR PLAZA,24 Willie Mays Plaza,303652,69049,null,null,null,201 East Broad Street,Spartanburg,"Volume Services America, Inc.",South Carolina,29036,null,94107,H36
AT&T PARK - P6 DRAFT CART,24 Willie Mays Plaza,303652,69051,null,null,null,201 East Broad Street,Spartanburg,"Volume Services America, Inc.",South Carolina,29306,null,94107,H36
AT&T PARK - 134 HOT CORNER BAR,24 Willie Mays Plaza,303652,69053,null,null,null,201 East Broad Street,Spartanburg,"Volume Services America, Inc.",South Carolina,29306,14155971500,94107,H36
Ghirardelli Chocolate - Main Concourse Level,24 Willie Mays Plaza,10850,69135,null,null,null,1111 139th Avenue,San Leandro,"Ghirardelli Chocolate Company / Martin Thompson, CEO",CA,94578,null,94107,H36
Mission Rock Resort,817 TERRY FRANCOIS Blvd,466881,69147,S.F.,null,null,760 2nd Street,San Francisco,"Golden Bear Restaurant Company III, LLC / Peter W. Osborne",CA,94107,null,94107,H26
Polo Grounds Pub & Grill,747 03rd St,394889,69152,S.F.,null,null,747 3rd Street,San Francisco,"O'Neill's Irish Pub SF, LLC / Kevin Kynoch, Doug Sinclair",CA,94107,null,94107,H25
"Premier Catering & Events, Inc.",1255 22nd St,362812,69186,S.F.,null,null,298 Magellan Ave.,SF,"Premier Catering & Events, Inc.",CA,94116,14155530288,94107,H30
Poco Dolce Confections Inc.,2419 03rd St,455419,69187,SF,37.759,-122.388,1020 Illinois St.,SF,"Poco Dolce Confections, Inc.",CA,94107,null,94107,H03
Jamber,858 Folsom St,465624,69244,SF,37.781,-122.403,220 Francisco St.,SF,"Jamber, LLC",CA,94133,null,94107,H26
Patisserie Philippe,2565 03rd St #323,465485,69279,SF,37.7571,-122.388,"200 Townsend St., Unit 40",SF,Patisserie Philippe LLC,CA,94107,null,94107,H30
Front Cafe LLC,150 Mississippi St,470465,69574,null,37.7646,-122.395,150 Mississippi St.,SF,Front Café LLC   Randall Stowell,CA,94107,null,94107,H24
Pinkberry,170 O'Farrell St,470681,69621,null,37.7865,-122.408,10359 Rochester Avenue,Los Angeles,"Watershed PB, Inc. / Elliot Mahn",CA,90024,null,94107,H24
Linda's Catering,290 Townsend St,470527,69945,SF,null,null,3623 Kirkham St.,SF,Hong Yan Fang-Li,CA,94122,null,94107,H79
Rice Paddy,850 Folsom St,472279,70143,SF,null,null,1461 Pacific Ave.,SF,Marie Tran,CA,94109,null,94107,H74
Baan/Alchemist,685 03rd St,472585,70306,SF,null,null,685 3rd St.,SF,Prana Venture Group,CA,94107,null,94107,H26
Garaje,475 03rd St,444489,70459,S.F.,37.7816,-122.396,1357 Terra Nova Blvd.,Pacifica,Bistronomics LLC,CA,94044,null,94107,H25
Cafe Du Soleil,345 03rd St,355945,70797,SF,null,null,P.O. Box 307,Millbrae,Mehrdad-Ramezanbeigi,CA,94030,null,94107,H24
La Fromagerie,2425 03rd St,301143,70939,null,null,null,2425 3rd St.,SF,Bouvet USA,CA,94107,14155865002,94107,H07
Saison,178 Townsend St,442686,70949,SF,null,null,178 Townsend St.,SF,Saison Dining Group LLC,CA,94107,null,94107,H26
The Iron Cactus,683 04th St,469766,71056,SF,37.7774,-122.395,350 Townsend St. #324,SF,Dangan Investments Inc.,CA,94107,null,94107,H26
The Creamery,685 04th St,469621,71057,SF,37.7774,-122.395,"350 Townsend Street, #324",SF,Bushypark Investments Inc.,CA,94107,null,94107,H26
Chrome Coffee Bar,580 04th St,474837,71081,null,null,null,372 Ritch St,Sf,Café Lambretta LLC,CA,94107,14155267581,94107,H78
The Slider Shack #2,428 11th St,467565,72129,null,null,null,5919 Avoca Avenue,Oakland,Slider Shack LLC,CA,94611,null,94107,H79
Wolfes Lunch,1220 16th St,478809,72176,null,null,null,1777 Pine St #306,San Francisco,"Ji Young Shim, Doo Sun kwon",CA,94109,null,94107,H25
Tacos El Flaco,2901 03rd St,100343,74065,null,null,null,"680 Florida St., Apt. #117",Sf,Jose E Ortiz,CA,94110,14155426731,94107,H79
Foxtail Catering & Events,2565 03rd St Unit#310,440731,74245,null,null,null,"2565 3rd Street, Suit 310",SF,The Fire Society LLC,CA,94107,null,94107,H30
Nosh This,2325 03rd St #326,456081,74246,null,null,null,"2325 3rd St., #326",SF,Kai Kronfield,CA,94107,null,94107,H21
AT&T PARK - DRAFT CART (P 8),24 Willie Mays Plaza,303652,74317,null,null,null,1 Independence Point,Greenville,"Volume Services, Inc./Centerplate",SC,29615,null,94107,H36
AT&T PARK - CLUB LEMONADE,24 Willie Mays Plaza,303652,74326,null,null,null,1 Independence Point,Greenville,"Volume Services, Inc./Centerplate",SC,29615,null,94107,H36
AT&T PARK - WINE BAR/VINTAGE '58,24 Willie Mays Plaza,303652,74327,null,null,null,1 Independence Point,Greenville,"Volume Services, Inc./Centerplate",SC,29615,null,94107,H36
AT&T PARK - MARGARITA CART (P 10),24 Willie Mays Plaza,303652,74328,null,null,null,1 Independence Point,Greenville,"Volume Services, Inc./Centerplate",SC,29615,null,94107,H36
AT&T PARK - BEER CART (P 2),24 Willie Mays Plaza,303652,74332,null,null,null,1 Independence Point,Greenville,"Volume Services, Inc./Centerplate",SC,29615,null,94107,H36
AT&T PARK - CERVEZAS CART (V 2),24 Willie Mays Plaza,303652,74333,null,null,null,1 Independence Point,Greenville,"Volume Services, Inc./Centerplate",SC,29615,null,94107,H36
AT&T PARK - BABY BULL (P 10),24 Willie Mays Plaza,303652,74336,null,null,null,1 Independence Point,Greenville,"Volume Services, Inc./Centerplate",SC,29615,null,94107,H36
Guckenheimer at Fibrogen,409 Illinois St,477404,74509,null,null,null,"3 Lagoon Dr., #325",Redwood Shores,"Guckenheimer Services, LLC",CA,94065,null,94107,H26
Ghirardelli Chocolate,24 Wiilie Mays Pl #120,10850,74760,null,null,null,1111 134th Avenue,San Leandro,"Ghirardelli Chocolate Co. / Yuo Smit, Martin Hug",CA,94578,null,94107,H36
Kitchen on the Hill,630 Rhode Island,426225,74974,SF,null,null,630 Rhode Island Street,SF,Lani Boucher,CA,94107,null,94107,H99
The Plant Cafe Organic,958 Illinois St,389602,75223,SF,null,null,"Pier 3 on the Embarcadero, suite 108",SF,Lettus LLC,CA,94111,null,94107,H30
Dogpatch Saloon,2496 03rd St,472430,75356,SF,null,null,2496 03rd St.,SF,"Dogpatch Saloon, LLC",CA,94107,null,94107,H86
Victory Hall And Parlor,360 Ritch St,485515,75406,San Francisco,null,null,360 Ritch St,San Francisco,Ram & Pig Productions LLC,CA,94107,null,94107,H26
Merigan Sub Shop,636 02nd St,483733,75409,null,null,null,2009 Fulton St,San Francisco,"Regno Limone, LLC",CA,94117,null,94107,H25
Crepe Cone,684 King St,480430,75467,SF,null,null,684 King Street,SF,"Crepe Cone 1, LLC",CA,94107,null,94107,H24
Umami Burger,242 King St,481665,75468,SF,null,null,242 King St.,SF,UBSOMA LLC,CA,94107,null,94107,H26
Git Hub,88 Colin P. Kelly Jr. St,456831,75575,San Francisco,null,null,88 Colin P. Kelly Jr St.,San Francisco,"Git Hub, Inc",CA,94107,null,94107,H84
Caffe Centro,102 South Park St,482490,75956,SF,null,null,102 South Park St.,SF,Buswell Restaurant Group LLC,CA,94107,null,94107,H28
AT&T PARK - (CART 6) Espresso & Dessert,24 Willie Mays Plaza,941060,76223,null,null,null,"131 Steuart Street, Suite 201",San Francisco,Juma Ventures,CA,94105,null,94107,H36
AT&T PARK - Coffee Bar & Ice Cream,24 Willie Mays Plaza,941060,76230,null,null,null,"131 Steuart Street,  Suite 201",San Francisco,Juma Ventures,CA,94105,null,94107,H36
AT&T PARK - Internet Cafe,24 Willie Mays Plaza,941060,76233,null,null,null,"131 Steuart Street, Suite 201",San Francisco,Juma Ventures,CA,94105,null,94107,H36
AT&T PARK - Centerplate/Crazy Grab'z Cart,24 Willie Mays Plaza,303652,76355,null,null,null,1 Independence Pointe,Greenville,"Volume Services, Inc.",SC,29615,null,94107,H36
Long Bridge Pizza Company,2347 03rd St,480513,76442,SF,null,null,2347 3rd St.,SF,"Long Bridge Pizza Company, LLC  Markoulis Andrew/Denardi Neal",CA,94107,null,94107,H24
Cesars Ballroom,826 26th St,421849,76619,SF,null,null,826 26th Street,SF,Cesar Ascarrunz,CA,94107,null,94107,H86
Happy Donut,761 03rd St,481932,76653,SF,null,null,761 03rd St.,SF,"Handan Donuts, Inc.",CA,94107,null,94107,H26
Andersen,303 02nd St,120607,76659,SF,null,null,30703 San Clemente St.,Hayward,Andersen America Inc.,CA,94544,null,94107,H25
Third Rail,628 20th St,476177,76895,SF,null,null,628 20th St.,SF,The Third Rail Bar LLC,CA,94110,null,94107,H87
R & B Cafe,633 Folsom St,475580,76896,SF,null,null,633 Folsim St.,SF,Hsie Liu,CA,94107,null,94107,H26
The Ramp,855 Terry Francois Blvd,427544,77185,SF,null,null,855 Terry Francois St.,SF,Ramp Restaurant Co.,CA,94107,14155597267,94107,H26
Bravado,170 King St #109,485836,77252,SF,null,null,"172 King Street, #109",San Francisco,Urbane LLC,CA,94107,null,94107,H25
Little Giant Restaurant Inc.,217 King St,482663,77403,null,null,null,2220 Kirkham St.,SF,"Little Giant Restaurant, Inc.",CA,94122,null,94107,H29
Shabu Bar,219 King St,485731,77404,null,null,null,2220 Kirkham St.,SF,"Shabu Bar, Inc.",CA,94122,null,94107,H29
Los Compadres Catering (Lic #5E50688),350 02nd St,393878,77492,null,null,null,116 Grand Ave.,SSF,Rafael Vizcaino,CA,94080,null,94107,H79
"The Estate Kitchen, LLC",799 Bryant St,484257,77901,SF,null,null,799 Bryant St.,SF,"The Estate Kitchen, LLC",CA,94107,null,94107,H25
Magnolia Brewing Company,2505 03rd St,462400,78178,null,null,null,2505 3rd St.,SF,Magnolia Brewing Company LLC,CA,94107,null,94107,H24
Soma Wine & Spirits 2,689 Folsom St,428530,78219,null,null,null,689 Folsom St.,San Francisco,"Soma Wines & Spirits, Inc.",CA,94107,null,94107,H07
The Sea Star,2289 03rd St,487879,78294,SF,null,null,2289 3rd St.,Sf,Majestic Hall LLC,CA,94107,null,94107,H86
Fearless,303 02nd St Suite G,483575,78301,null,null,null,303 02nd St.,San Francisco,Ministry of Taste LLC,CA,94107,null,94107,H25
Red Dog,303 02nd St,483575,78303,null,null,null,303 02nd St.,San Francisco,Ministry of Taste LLC,CA,94107,null,94107,H26
AT&T PARK - Food Cart,24 Willie Mays Plaza,303652,78365,null,null,null,1 Independence Point,Greenville,"Volume Services, Inc.",SC,29615,null,94107,H36
AT&T PARK - Food Cart,24 Willie Mays Plaza,303652,78366,null,null,null,1 Independence Point,Greenville,"Volume Services, Inc.",SC,29615,null,94107,H36
AT&T PARK - Food Cart,24 Willie Mays Plaza,303652,78367,null,null,null,1 Independence Point,Greenville,"Volume Services, Inc.",SC,29615,null,94107,H36
AT&T PARK - Food Cart,24 Willie Mays Plaza,303652,78368,null,null,null,1 Independence Point,Greenville,"Volume Services, Inc.",SC,29615,null,94107,H36
AT&T PARK - Draft Beer Cart,24 Willie Mays Plaza,303652,78369,null,null,null,1 Independence Point,Greenville,"Volume Services, Inc.",SC,29615,null,94107,H36
AT&T PARK - Food Cart,24 Willie Mays Plaza,303652,78370,null,null,null,1 Independence Point,Greenville,"Volume Services, Inc.",SC,29615,null,94107,H36
AT&T PARK - Food Cart,24 Willie Mays Plaza,303562,78371,null,null,null,1 Independence Point,Greenville,"Volume Services, Inc.",SC,29615,null,94107,H36
AT&T PARK - Outta Here Cheesesteak,24 Willie Mays Plaza,303562,78372,null,null,null,1 Independence Point,Greenville,"Volume Services, Inc.",SC,29615,null,94107,H36
AT&T PARK - Wine Cart,24 Willie Mays Plaza,303652,78373,null,null,null,1 Independence Point,Greenville,"Volume Services, Inc.",SC,29615,null,94107,H36
AT&T PARK - Food Cart,24 Willie Mays Plaza,303652,78374,null,null,null,1 Independence Point,Greenville,"Volume Services, Inc.",SC,29615,null,94107,H36
AT&T PARK - Draft Beer Cart,24 Willie Mays Plaza,303652,78375,null,null,null,1 Independence Point,Greenville,"Volume Services, Inc.",SC,29615,null,94107,H36
Bar Oda,1500 Owens St,484457,78389,null,null,null,1500 Owens St.,San Francisco,Oda Restaurant Inc.,CA,94107,null,94107,H26
Cockscomb Restaurant,564 04th St,1005446,78405,null,null,null,564 4th St.,San Francisco,Cockscomb Restaurant LLC,CA,94107,14155970700,94107,H26
Thinker's Cafe,1631 20th St,352084,78408,null,null,null,1631 20th St.,San Francisco,Jenny D. Phreab,CA,94107,null,94107,H24
AT&T PARK - Outta Here Cheesesteak,24 Willie Mays Plaza,303652,78653,null,null,null,1 Independence Point,Greenville,"Volume Services, Inc.",South Carolina,29615,null,94107,H36
AT&T PARK - Snack Stand,24 Willie Mays Plaza,303652,78656,null,null,null,1 Independence Point,Greenville,"Volume Services, Inc.",South Carolina,29615,null,94107,H36
Tazza D'Amore Inc.,700 04th St,481479,78663,null,null,null,"4489 17th St., Unit #1",SF,Tazza D'Amore Inc.,CA,94114,null,94107,H24
Anar Persian Cuisine,937 A Harrison St,308096,78797,null,null,null,937A Harrison St.,SF,Michael Kimiyaie & Hadi Mohammadi,CA,94107,null,94107,H25
Barry's Boot Camp,236 King St,488203,78962,null,null,null,236 King St.,SF,"BBC Unit 1, LLC",CA,94107,null,94107,H26
AT&T PARK-Virgin America Flight Deck Bar,24 Willie Mays Plaza,303652,79000,null,null,null,1 Independence Point,Geenville,"Volume Services, Inc.",SC,29615,null,94107,H36
AT&T PARK - Portable Bar,24 Willie Mays Plaza,303652,79003,null,null,null,1 Independence Point,Greenville,"Volume Services, Inc.",SC,29615,null,94107,H36
AT&T PARK - Margarita Cart,24 Willie Mays Plaza,303652,79005,null,null,null,1 Independence Point,Greenville,"Volume Services, Inc.",SC,29615,null,94107,H36
AT&T PARK - Draft Beer Cart,24 Willie Mays Plaza,303652,79006,null,null,null,1 Independence Point,Greenville,"Volume Services, Inc.",SC,29615,null,94107,H36
AT&T PARK - Draft Beer Cart,24 Willie Mays Plaza,303652,79008,null,null,null,1 Independence Point,Greenville,"Volume Services, Inc.",SC,29615,null,94107,H36
AT&T PARK - Margarita Cart,24 Willie Mays Plaza,303652,79009,null,null,null,1 Independence Point,Greenville,"Volume Services, Inc.",SC,29615,null,94107,H36
AT&T PARK - Draft Beer Cart,24 Willie Mays Plaza,303652,79010,null,null,null,1 Independence Point,Greenville,"Volume Services, Inc.",SC,29615,null,94107,H36
AT&T PARK - Draft Beer Cart,24 Willie Mays Plaza,303652,79011,null,null,null,1 Independence Point,Greenville,"Volume Services, Inc.",SC,29615,null,94107,H36
AT&T PARK - Food Cart,24 Willie Mays Plaza,303652,79012,null,null,null,1 Independence Point,Greenville,"Volume Services, Inc.",SC,29615,null,94107,H36
AT&T PARK - Ice Cream & Espresso,24 Willie Mays Plaza,941060,79146,null,null,null,"131 Steuart Street, Suite 201",San Francisco,Juma Ventures,CA,94105,null,94107,H36
Tender Greens,266 King St,481136,79347,San Francisco,null,null,266 King Street,San Francisco,"T.Y.P. Restaurant Group, Inc.",CA,94107,null,94107,H26
Speciality's Cafe and Bakery,680 Folsom St,180332,79433,San Francisco,null,null,"5050 Hopyard Road, Suite 250",Pleasanton,"Specialty's Café and Bakery, Inc",CA,94588,null,94107,H26
Picnic On Third,493 03rd St,478711,79498,null,null,null,"79 Hill St., #B",San Francisco,Tag'd LLC,CA,94110,null,94107,H26
Bright Les Clos,234 Townsend St,482877,79499,null,null,null,234 Townsend St.,SF,Bright Wine LLC,CA,94107,null,94107,H25
Urban Picnic,303 02nd St #N125,425872,79515,null,null,null,125 Kearny Street,Sf,Marcelle Corporation,CA,94108,null,94107,H25
AT&T PARK - Garden Table Stand,24 Willie Mays Plaza,303652,79586,null,null,null,1 Independence Point,Greenville,"Volume Services, Inc.",SC,20615,null,94107,H36
AT&T PARK - Hearth Table Stand,24 Willie Mays Plaza,303652,79587,null,null,null,1 Independence Point,Greenville,"Volume Services, Inc.",SC,29615,null,94107,H36
AT&T PARK - Garden Bar,24 Willie Mays Plaza,303652,79588,null,null,null,1 Independence Point,Greenville,"Volume Services, Inc.",South Carolina,29615,null,94107,H36
AT&T PARK - Beverage Cart,24 Willie Mays Plaza,303652,79589,null,null,null,1 Independence Point,Greenville,"Volume Services, Inc.",SC,29615,null,94107,H36
Saba Jam,989 20th St,481719,79869,null,null,null,"989 20th Street, Unit 469",SF,Saba Parsa,CA,94107,null,94107,H98
AT&T PARK - Gotham Bar,24 Willie Mays Plaza,303652,79905,null,null,null,1 Independence Point,Greenville,"Volume Services, Inc.",SC,29615,null,94107,H36
AT&T PARK - Gotham Kitchen,24 Wilie Mays Plaza,303652,79906,null,null,null,1 Independence Point,Greenville,"Volume Services, Inc.",SC,29615,null,94107,H25
Mochica,1469 18th St,373771,79989,SF,null,null,778 Lakeview Ave.,SF,Altamirano LLC,CA,94112,null,94107,H25
Marlowe,500 Brannan St,1002648,80063,null,null,null,"489 Harrison Street, #506",San Francisco,More Marlowe LLC,CA,94105,null,94107,H26
Bon Appetit Management Company,350 Rhode Island St 150,168329,80279,null,null,null,"350 Rhode Island St., Ste. 150",SF,Bon Appetit Management Co.,CA,94107,null,94107,H30
Stem Kitchen and Garden,499 Illinois St,168329,80487,null,null,null,"100 Hamilton Avenue, Suite 400",Palo Alto,Bon Appetit Management Co.,CA,94301,null,94107,H26
Neighbor Bakehouse,2343 03rd St,465075,80890,San Francisco,null,null,1591 Page St,San Francisco,Greg C. Mindel,CA,94117,14150772405,94107,H88
Advance Magazine Publishers Inc.,520 03 St  Third Floor,20592,80935,San Francisco,null,null,1313 North Market St. 11th Floor,Wilmington,Advance Magazine Publishers Inc.,Delaware,19801,14155275152,94107,H24
Soma Pizza,483 03rd St,505744,81316,null,null,null,1926 Bayview Avenue,Belmont,"Isam Darwish, Nedal Shoman",Ca,94002,14150264580,94107,H25
G Food Lounge,431 2nd St,474295,81592,SF,null,null,"425 2nd St, Ste 100",San Francisco,"SAS Group LLC, c/o Manish Panjiar",CA,94107,14155239923,94107,H78
Jordan's Kitchen LLC,413 10th St,462421,81637,null,null,null,1255 Rhode Island st,San Francisco,Jordan's Kitchen LLC,CA,94107,14155710761,94107,H26
AllStars Donuts,399 05th St,367904,81654,null,null,null,2960 Dublin Dr,South San Francisco,Calvin Wei,CA,94080,14155880889,94107,H25
The Wine House,829 26th St,108040,81723,null,null,null,829 26th St.,SF,Wine House LTD,CA,94107,null,94107,H03
Subway Sandwiches #33847,795 A Folsom St,1004542,81861,null,null,null,795A Folsom St.,SF,"Shahvali, Inc.",CA,94107,null,94107,H24
Anchor At The Yard,"337 Seawall Lot A, Land Area 1-1",451897,81946,SF,null,null,1705 Mariposa Street,SF,Anchor Brewing Company LLC,CA,94107,null,94107,H86
Twirl And Dip,415 De Haro St Unit#105,486654,81992,SF,null,null,887 Rhode Island St.,SF,Twirl And Dip,CA,94107,null,94107,H24
Philz Coffee,1258 Minnesota St,415140,82033,null,null,null,1258 Minnesota Street,SF,Philz Coffee Inc.,CA,94107,null,94107,H26
AT&T PARK - Food Stand,24 Willie Mays Plaza,303652,82036,null,null,null,1 Independence Pointe,Greenville,"Volume Services, Inc.",SC,29615,null,94107,H36
Kama O Deli LLC,590 03rd St,1012292,82038,SF,null,null,590 3rd St.,SF,Kama O Deli LLC,CA,94107,null,94107,H24
Mathilde French Bistro,315 05th St,438867,82207,null,null,null,315 5th St.,SF,Le Charm Inc.,CA,94107,null,94107,H25
Serpentine,2495 03rd St,460285,82469,SF,null,null,2495 3rd St.,SF,"Serpentine, Inc.",CA,94107,null,94107,H25
Marcella's Lasagneria E Cucina,1099 Tennessee St,1000735,82636,null,null,null,1099 Tennessee St.,SF,Marcella's Natural Foods Inc.,CA,94107,null,94107,H24
The Pin Up,772 Folsom St,1007473,82656,SF,null,null,245 Kearny St.,SF,"And Another One, LLC",CA,94108,null,94107,H25
Slice House by Tony Gemignani,680 A 02nd St,1012708,82793,null,null,null,680A 2nd Street,SF,"680 2nd Street Partners, LLC",CA,94107,null,94107,H26
Tacos El Ojo De Agua,551 03rd St,1001998,82823,null,null,null,1001 Phelps Street,San Francisco,Guadalupe Benitez,CA,94124,null,94107,H79
AT&T - Food Cart,24 Willie Mays Plaza,303652,82844,null,null,null,1 Independence Point,Greenville,"Volume Services, Inc.",SC,29615,null,94107,H36
AT&T Park - Wine Cart,24 Willie Mays Plaza,303652,82845,null,null,null,1 Independence Point,Greenville,"Volume Services, Inc.",SC,29615,null,94107,H36
AT&T Park - Food Cart,24 Willie Mays Plaza,303652,82846,null,null,null,1 Independence Point,Greenville,"Volume Services, Inc.",South Carolina,29615,null,94107,H36
AT&T Park - Coors Light Plaza,24 Willie Mays Plaza,303652,82847,null,null,null,1 Independence Point,Greenville,"Volume Services, Inc.",SC,29615,null,94107,H36
AT&T Park - Beer Cart,24 Willie Mays Plaza,303652,82850,null,null,null,1 Independence Point,Greenville,"Volume Services, Inc.",South Carolina,29615,null,94107,H36
AT&T Park - Beer Cart P14,24 Willie Mays Plaza,303652,82852,null,null,null,1 Independence Point,Greenville,"Volume Services, Inc.",South Carolina,29615,null,94107,H36
AT&T Park - Beer Cart P15,24 Willie Mays Pl,303652,82854,null,null,null,1 Independence Point,Greenville,"Volume Services, Inc.",South Carolina,29615,null,94107,H36
San Francisco Giants,24 Willie Mays Plaza,918299,82933,null,null,null,24 Willie Mays Plaza,San Francisco,"SF Baseball Associates, LLC",CA,94107,null,94107,H24
Chez Maman,1401 18th St,353671,82944,null,null,null,1401 18th St.,SF,Logere Inc.,CA,94107,null,94107,H24
Philz Coffee,1775 17th St,415140,82992,null,null,null,1775 17th St.,SF,Philz Coffee Inc.,CA,94107,null,94107,H25
Hayabusa,431 2nd St,1012739,83041,null,null,null,508 Dorado Terrace,San Francisco,Apex Global Alliance LLC,CA,94112,null,94107,H79
Luna Express,350 02nd St,1012392,83142,null,null,null,1188 Tulane Ave.,San Leandro,"Saba Hagos, Lilly Hagos",CA,94579,null,94107,H79
Little Skillet,330 Ritch St,1004342,83360,null,null,null,"360 Ritch Street, Suite 200",San Francisco,"Little Skillet, LLC",CA,94107,null,94107,H25
Local Brewing Co LLC,69 Bluxome St,1006128,83362,null,null,null,86 Arago St.,SF,Local Brewing Co LLC,CA,94112,null,94107,H87
Provender,1415 18th St,1009967,83389,null,null,null,1415 18th St.,SF,Potrero Provender LLC,CA,94107,null,94107,H24
Salud Cocktails & Co LLC,508 04th St,1011034,83406,null,null,null,3635 Mission St.,SF,Salud Cocktails & Co LLC,CA,94110,null,94107,H74
La Capra Coffee,360 03rd St Suite 101,1012951,83415,null,null,null,582 Market St.,SF,SHM Coffee LLC,CA,94104,null,94107,H25
The Plant Cafe Organic,2335 03rd St,389602,83520,SF,null,null,958 Illinois St.,SF,Lettus LLC,CA,94107,null,94107,H26
The Lord George,555 02nd St,1015310,83746,SF,null,null,555 2nd St.,SF,2nd Street Bar LLC,CA,94107,null,94107,H25
Annie's Hot Dogs,1330 25th St,143153,83843,SF,null,null,17 Shemran CT,Fairfax,Ny Frankfurter Co Of Ca Inc,CA,94930,null,94107,H33
The Bagel Bakery Cafe,151 Townsend St,1015757,84196,SF,null,null,151 Townsend St.,SF,Chea Sok May,CA,94107,null,94107,H25
Genji Sushi,399 04th St,475221,84392,SF,null,null,1500 Johh F Kennedy Blvd. #725,Philadelphia,Genji Pacific LLC,PA,19102,null,94107,H28
Ruru Juice LLC,1111 08th St,1009484,84558,San Francisco,null,null,1016 Cornel Avenue,Albany,Ruru Juice LLC,CA,94706,14150968087,94107,H79
Caputo,100 Brannan St,1008102,84793,SF,null,null,100 Brannan St.,SF,100 Brannan LLC,CA,94107,null,94107,H26
Taco Bell Cantina #31685,710 03rd St,1017512,84922,SF,null,null,"5635 West Las Positas Blvd., Suite 406",Pleasanton,Golden Gate Bell LLC,CA,94588,null,94107,H25
Aunty Vicky's,431 02nd St,1017852,85049,San Francisco,null,null,3741 Cesar Chavez Street,San Francisco,Aunty Vicky's,CA,94110,null,94107,H79
Panera Bread,301 King St,1019555,85170,null,null,null,P.O. Box 507,West Linn,Pan NorCal LLC,OR,97068,null,94107,H26
DNA Pizza,917 Folsom St,343971,85384,null,null,null,375 11th St,San Francisco,Sensoria LLC,CA,94103,14155624337,94107,H26
Connecticut Yankee,100 Connecticut St,1023620,85501,null,null,null,100 Connecticut St,San Francisco,Little's LLC,CA,94107,null,94107,H25
The Pearl,601 19th St,1004666,85594,null,null,null,601 19th St,San Francisco,"Mortar and Mash One, LLC",CA,94107,14155267171,94107,H26
K & L Wine Merchants,855 Harrison St,359934,85661,null,null,null,3005 El Camino Real,Redwood City,BBCK Enterprises Inc,CA,94061,14155891734,94107,H06
Local Tap,600 03rd St,1017541,86111,null,null,null,4210 Judah Street #102,San Francisco,"Golden Horn Ventures, LLC",CA,94122,14155995654,94107,H25
Bento,2152 03rd St,1007133,86148,null,null,null,434 Lee St # 301,Oakland,"Bento Technology, Inc",CA,94610,14155301332,94107,H74
Ruchi's Restaurant,474 03rd St,1022105,86151,null,null,null,"826 Jackson St., Apt 302",San Francisco,Ruchi's Restaurant,CA,94133,14155543800,94107,H25
Popsons,330 Townsend St,1019405,86221,null,null,null,"2425 Mission Street, #B",San Francisco,"B & M Burger, LLC",CA,94110,14159881393,94107,H24
Creperie Saint Germain,24 Willie Mays Pl,452039,86331,San Francisco,null,null,1760 Cesar Chavez Ste L,San Francisco,Zee Cooks LLC,CA,94124,14155947348,94107,H79
Wine Down,685 Folsom St,489065,86333,null,null,null,1721 Chesnut st #303,San Francisco,"Wine Down SF, LLC",CA,94123,14155827539,94107,H87
Aina,900 22nd St,1021854,86362,null,null,null,900 22nd St,San Francisco,Aina Dogpatch LLC,CA,04107,14155338758,94107,H25
Bacon Bacon,737 03rd St,488272,86382,null,null,null,205A frederick St,San Francisco,Bacon Bacon LLC,CA,94117,14155301968,94107,H25
Dropbox,333 Brannan St,422846,86484,null,null,null,333 Brannan St,San Francisco,"Evenflow, Inc",CA,94107,null,94107,H84
Fork and Spoon Productions,"2565 03rd St, #336",1012103,86590,San Francisco,null,null,2565 03rd St #336,San Francisco,AGA Restaurant Group LLC,CA,94107,null,94107,H74
Green Heart Foods LLC,1069 Pennsylvania Ave,483495,86715,null,null,null,319 Arkansas St,San Francisco,"Green Heart Foods, LLC",CA,94107,14155277307,94107,H30
Spin,690 Folsom St,1029468,87258,San Francisco,null,null,48 East 23rd St,New York,Spin San Francisco LLC,NY,10010,null,94107,H26
NEEM,2948 Folsom St,1029991,87943,San Francisco,null,null,"250 King St., #722",San Francisco,NEEM,Ca,94107,14155636468,94107,H74
The Cottage Baking Company,780 Wisconsin St,1031443,88079,San Francisco,null,null,780 Wisconsin Street,San Francisco,Arlene N Kato,CA,94107,null,94107,H98
Stripe,185 Berry St 4th Floor,480705,88110,null,null,null,3180 18th St.,San Francisco,Stripe,Ca,94110,14155279556,94107,H84
Live Oak School,1555 Mariposa St,379130,88326,San Francisco,null,null,1555 Mariposa St.,San Francisco,"Live Oak, A Learning Center for Children",Ca.,94107,14155564723,94107,H91
Old Devil Moon,3472 Mission St,1013459,88381,San Francisco,null,null,1105 Leavenworth #1,San Francisco,"Old Devil Moon, LLC",California,94109,null,94107,H25
Buena Fe,901 16th St,445661,88432,null,null,null,"61 Crestwood Dr, Apt. 28",Daly City,Gerardo Ulloa,CA,94015,14155949846,94107,H79
"AT&T Park - Beer Cart/View Level, Sec. 333",24 Willie Mays Plaza,303652,89198,null,null,null,1 Independence Pointe,Greenville,"Volume Services, Inc.",SC,29615,null,94107,H36
"AT&T Park - Beer Cart/Lower CF, Sec. 140",24 Willie Mays Plaza,303652,89199,null,null,null,1 Independence Pointe,Greenville,"Volume Services, inc.",SC,29615,null,94107,H36
"AT&T Park - Beer Cart/Lower CF, Sec. 142",24 Willie Mays Plaza,303652,89200,null,null,null,1 Independence Pointe,Greenville,"Volume Services, inc.",SC,29615,null,94107,H36
"AT&T Park-Tony's Pizza/View Lvl, Sec. 314",24 Willie Mays Plaza,303652,89201,null,null,null,1 Independence Pointe,Greenville,"Volume Services, Inc.",SC,29615,null,94107,H36
"AT&T - Hol n Jam Cart/Upper CF, Sec. 142",24 Willie Mays Plaza,303652,89204,null,null,null,1 Independence Pointe,Greenville,"Volume Services, Inc.",SC,94107,null,94107,H36
Oasis Grill,91 Drumm St,954377,58,San Francisco,37.7945,-122.397,91  Drumm St,San Francisco,Mohammad Zughaiyir,CA,94111,null,94111,H24
The Waterfront Restaurant,Pier 7 Embarcadero,92446,116,San Francisco,37.7939,-122.396,Pier 7 Embarcadero,San Francisco,"Bundox Restaurant, Inc",CA,94111,null,94111,H24
Silver Star Cafe and Deli,316 Pacific Ave,922022,132,San Francisco,37.7977,-122.401,316 Pacific Ave,San Francisco,Yan Wen Lei,CA,94111,null,94111,H24
Grumpy's American Pub,125 Vallejo St,349376,226,San Francisco,37.7996,-122.401,125 VALLEJO ST,SAN FRANCISCO,MAUMER INC,CA,94111,null,94111,H24
Orale Orale Inc,113 Sacramento St,205240,423,San Francisco,37.7945,-122.397,113 SACRAMENTO ST,SAN FRANCISCO,ORALE ORALE INC,CA,94111,null,94111,H24
Piperade,1015 Battery St,943332,786,San Francisco,37.8007,-122.401,1015  Battery ST,San Francisco,Pastis Inc,CA,94111,null,94111,H24
Hunan Restaurant,924 Sansome St,87062,796,San Francisco,37.799,-122.402,924 Sansome St,San Francisco,Henry Chung & Diana Chung,CA,94111,null,94111,H24
Le Petit Cafe,1 Maritime Plaza,161146,886,San Francisco,37.7952,-122.399,1 Maritime Plaza,San Francisco,Mavataj Inc,CA,94111,null,94111,H24
Tricolore Caffe' and Pizzeria,590 Washington St,943015,1090,San Francisco,37.7956,-122.403,590 Washington St,San Francisco,Tricolore Caffe' and Pizzeria,CA,94111,null,94111,H24
"Peet's Coffee & Tea, Inc",022 Battery St,196325,1125,San Francisco,37.7916,-122.4,22 Battery St,San Francisco,"Peets Coffee & Tea, Inc",CA,94111,null,94111,H24
Starbucks Coffee,701 Battery St,911744,1368,San Francisco,37.7978,-122.401,701  Battery St,San Francisco,Starbucks Coffee Co,CA,94111,null,94111,H24
Starbucks Coffee,1560 Van Ness Ave,911744,1444,San Francisco,37.7901,-122.422,1560 Van Ness Ave,San Francisco,Starbucks Coffee Co,CA,94109,null,94111,H24
Peet's Coffee & Tea,1 Ferry Building  C3,196325,1493,San Francisco,37.7952,-122.394,Ferry Building C3,San Francisco,Peet's Coffee and Tea,CA,94111,null,94111,H25
SF Bay Club - Court Cafe,150 Greenwich St,108494,1571,San Francisco,37.8032,-122.403,150 Greenwich St,San Francisco,"The Court, Inc",CA,94111,null,94111,H25
Starbucks Coffee,27 Drumm St,911744,1615,San Francisco,37.7942,-122.397,27  Drumm St,San Francisco,Starbucks Coffee Co,CA,94111,null,94111,H25
Sai's Vietnamese Restaurant,505 Washington St,303006,1687,San Francisco,37.7957,-122.402,505 Washington St,San Francisco,Justin & Terrence Inc / Henry B Tsan,CA,94111,null,94111,H25
The Old Ship Saloon,298 Pacific Ave,912302,1836,San Francisco,37.7977,-122.401,298 Pacific Ave,San Francisco,"Old Ship Saloon, Inc",CA,94111,null,94111,H25
Battery Street Coffee Roastery,950 Battery St,936351,1850,San Francisco,37.8002,-122.401,950 BATTERY ST.,SAN FRANCISCO,CALIFORNIA COFFEE ROASTERY,CA,94111,null,94111,H25
Bocadillos,710 Montgomery St,376585,2007,San Francisco,37.7959,-122.403,710 MONTGOMERY,SAN FRANCISCO,C AND G INC,CA,94111,null,94111,H26
Starbucks Coffee Co,99 Jackson St,911744,2218,San Francisco,37.797,-122.398,99 Jackson St,San Francisco,Starbucks Coffee Co,CA,94111,null,94111,H25
Palio Paninoteca,505 Montgomery St,381957,2226,San Francisco,37.7938,-122.403,505 Montgomery St,San Francisco,"Paninoteca, Inc",CA,94111,null,94111,H25
Tokyo Express,660 Sacramento St,208776,2228,San Francisco,37.7937,-122.404,660 Sacramento St,San Francisco,Jung Dong Choi & Yun Suk Choi,CA,94111,null,94111,H25
Starbucks Coffee Co,1255 Battery St,911744,2578,San Francisco,37.8025,-122.402,1255  Battery St,San Francisco,Starbucks Coffee Co,CA,94111,null,94111,H25
New Mangia Tutti Ristorante,635 Clay St,1008789,2733,San Francisco,37.7946,-122.404,"670 Monterey Blvd., Apt. #1",San Francisco,Raul A Hernandez,CA,94127,null,94111,H25
Starbucks Coffee,052 California St,911744,2777,San Francisco,37.7936,-122.397,52  California St,San Francisco,Starbucks Coffee Company,CA,94111,14155398630,94111,H25
Kokkari,200 Jackson St,321289,2858,San Francisco,37.7969,-122.4,200  Jackson St,San Francisco,"Kokkari, Ltd",CA,94111,null,94111,H26
Tlaloc Taqueria,525 Commercial St,322521,2896,San Francisco,37.7943,-122.402,525  Commercial St,San Francisco,"Cancun Taqueria, Inc",CA,94111,null,94111,H26
Il Fornaio Gastronomia Italiana,1265 Battery St,168374,2932,San Francisco,37.8029,-122.402,1265 Battery St,San Francisco,Il Fornaio (America) Corp,CA,94111,null,94111,H26
Harrington's Bar & Grill,245 Front St,12293,2941,San Francisco,37.7939,-122.399,245 Front St,San Francisco,"Harrington's Bar, Inc",CA,94111,null,94111,H26
Safeway Store #4601,145 Jackson St,24669,2949,San Francisco,37.797,-122.399,145 Jackson St,San Francisco,"Safeway Stores, Inc",CA,94111,null,94111,H81
Tadich Grill,240 California St,27948,3122,San Francisco,37.7934,-122.399,240 California St,San Francisco,"Tadich Grill, Inc",CA,94111,null,94111,H26
Lee's Deli,222 Front St,147648,3134,San Francisco,37.7938,-122.399,222 Front St,San Francisco,"Sterling M. Enterprises, Inc.",CA,94111,null,94111,H26
The Royal Exchange Restaurant Co.,301 Sacramento St,143720,3155,San Francisco,37.7943,-122.399,301 SACRAMENTO ST.,SAN FRANCISCO,THE ROYAL EXCHANGE RESTAURANT COMPANY,CA,94111,null,94111,H26
Butterfly Embarcadero,Pier 33,376276,3156,San Francisco,37.8065,-122.405,Pier 33 Embarcadero,San Francisco,RGN Corporation,CA,94111,null,94111,H26
Togo's /  Baskin Robbins,570 Battery St,452146,3365,San Francisco,37.7965,-122.401,570 Battery St,San Francisco,"Kawthar, Inc",CA,94111,null,94111,H26
Levi Strauss & Co,"1155 Battery St,  7th Floor",16858,3428,San Francisco,37.8019,-122.402,"1155  Battery St, 7th Floor",San Francisco,Levi Strauss & Co,CA,94111,null,94111,H26
MV California Hornblower,Pier 3 The Embarcadero,159060,3440,San Francisco,37.799,-122.4,Pier 3,San Francisco,Hornblower Cruises & Events,CA,94111,null,94111,H26
Starbucks Coffee,565 Clay St,911744,3503,San Francisco,37.7947,-122.403,565  Clay St,San Francisco,Starbucks Coffee Company,CA,94111,null,94111,H26
City View Restaurant,662 Commercial St,921083,3510,San Francisco,37.7941,-122.404,662  Commercial ST,San Francisco,"City View Restaurant, Inc",CA,94111,null,94111,H26
Boudin Bakery,4 Embarcadero Center,161649,3515,San Francisco,37.7951,-122.396,Pier 39,San Francisco,"Andre-Boudin Bakeries, Inc",CA,94133,null,94111,H26
"Hyatt Regency - Main Kitchen, Employees Cafeteria",5 Embarcadero Center,369914,3518,San Francisco,37.7942,-122.396,5 Embarcadero Center,San Francisco,Hyatt Corp,CA,94111,null,94111,H26
Eclipse Cafe,5 Embarcadero Center,369914,3519,San Francisco,37.7942,-122.396,5 Embarcadero Center,San Francisco,Hyatt Corp,CA,94111,null,94111,H26
Bix,56 Gold St,171578,3520,San Francisco,37.7968,-122.403,56 Gold St,San Francisco,Alley Associates Inc 1,CA,94111,null,94111,H26
Villa Taverna,27 Hotaling Pl,391528,3525,San Francisco,37.796,-122.403,27 Hotaling PL,San Francisco,Circolo La Ataverna,CA,94111,null,94111,H26
Palio D'Asti,640 Sacramento St,169932,3538,San Francisco,37.7937,-122.404,640 Sacramento St,San Francisco,"Ristoranti Piemontesi, Inc",CA,94111,null,94111,H26
Il Massimo Del Panino,441 Washington St,350794,3541,San Francisco,37.7958,-122.401,441 Washington St,San Francisco,"Il Massimo Del Panino, Inc",CA,94111,null,94111,H26
Gaylord India Restaurant,1 Embarcadero Center,922626,3711,San Francisco,37.7946,-122.4,"1 Embarcadero Center, Podium11",San Francisco,Subhkam Corporation,CA,94111,null,94111,H26
Hornblower - Santa Rosa,Pier 3  The Embarcadero,159060,3959,San Francisco,37.7946,-122.393,Pier 3  The Embarcadero,San Francisco,"Hornblower Yachts, Inc",CA,94111,null,94111,H26
Ferry Plaza Wine Merchant,1 Ferry Building  #23,367303,4056,San Francisco,37.7952,-122.394,PO Box 194484,San Francisco,"Ferry Plaza Wine Mechant, LP",CA,94119,null,94111,H87
EZ5 Inc,682 Commercial St,374090,4079,San Francisco,37.7941,-122.404,682-684 Commercial St,San Francisco,EZ5 Inc,CA,94111,null,94111,H86
San Francisco Belle,Pier 3,159060,4108,San Francisco,37.7975,-122.396,Pier 3,San Francisco,"Hornblower Yachts, Inc",CA,94111,14155948305,94111,H26
Barbarossa,714 Montgomery St,367892,4412,San Francisco,37.7959,-122.403,714 Montgomery St,San Francisco,"The Bubble Lounge SF, Inc",CA,94111,null,94111,H26
"Hotwok Express, Inc",605 Battery St,378627,4462,San Francisco,37.797,-122.401,605 Battery St,San Francisco,"Hotwok Express, Inc",CA,94111,null,94111,H25
AFC Sushi @ Safeway 4601,145 Jackson St,467295,4476,San Francisco,37.797,-122.399,145 Jackson St,San Francisco,Advanced Fresh Concepts Corp,CA,94111,null,94111,H28
Golden Gate Meat Co,1 Ferry Building  #13,368604,4495,San Francisco,37.7952,-122.394,1 Ferry Building #13,San Francisco,"Offenbach Enterprises, Inc",CA,94111,null,94111,H28
Yo Yo's,318 Pacific Ave,310451,4623,San Francisco,37.7977,-122.401,318 Pacific Ave,San Francisco,Lydia Wong & Joseph Lee,CA,94111,null,94111,H28
Starbucks Coffee,398 Market St,911744,4819,San Francisco,37.7917,-122.398,398  Market St,San Francisco,Starbucks Coffee Company,CA,94111,null,94111,H28
Taco Bell,7 Drumm St,359621,5136,San Francisco,37.7939,-122.396,"3000-F Danville Blvd., #187",Alamo,Mansi Food Inc,CA,94507,null,94111,H29
The Waterfront,Pier 9,92446,5312,San Francisco,null,null,Pier 9,San Francisco,Bundox Rest. Inc,CA,94111,null,94111,H33
June Taylor Company,1 Ferry Building  #50,467775,5326,San Francisco,null,null,1 Ferry Building #50,San Francisco,June Taylor,CA,94111,null,94111,H34
Quick-N-Ezee Indian Foods,1 Ferry Building  #50,467114,5329,San Francisco,null,null,23682 Clawiter Road,Hayward,"Jagpreet Enterprises, Inc",CA,94545,null,94111,H34
Della Fattoria,1 Ferry Building  #50,467803,5375,San Francisco,null,null,1 Ferry Building #50,San Francisco,"Weber, Edmund and Kathleen",CA,94111,null,94111,H34
Acme Bread Co,1 Ferry Building  #50,368145,5394,San Francisco,null,null,1 Ferry Building #50,San Francisco,Acme Bread Co,CA,94111,null,94111,H34
"Downtown Bakery & Creamery, Inc",1 Ferry Building  #50,465996,5397,San Francisco,null,null,1 Ferry Building #50,San Francisco,"Downtown Bakery &Creamery, Inc",CA,94111,null,94111,H34
"See's Candies, Inc #10",3 Embarcadero Center,25403,6977,San Francisco,37.795,-122.397,3  Embarcadero Center,San Francisco,"See's Candies, Inc",CA,94111,null,94111,H03
Walgreens #03624,275 Sacramento St,30032,7372,San Francisco,37.7944,-122.398,108 Wilmont Road,Deerfield,Walgreen Co,IL,60015,null,94111,H08
Cowgirl Creamery/Artisan Cheese,1 Ferry Building  #17,367823,7456,San Francisco,37.7952,-122.394,1 Ferry Building #17,San Francisco,Cowgirl Creamery Inc,CA,94111,null,94111,H07
S & P Concessions - Mendocino,Ferry Plaza - Pier 1,945975,7471,San Francisco,37.7944,-122.393,Pier 1/2 Ferry Building,San Francisco,Mike J Sarikakis & Philip Perakis,CA,94111,null,94111,H07
RJ's Market,1425 Sansome St,114128,7479,San Francisco,37.8036,-122.403,1425 Sansome St,San Francisco,"RJ Pesusic, Inc.",CA,94111,14155397160,94111,H07
The Daily Habit,1 Maritime Plaza,161146,7503,San Francisco,37.7952,-122.399,1 Maritime Plaza,San Francisco,Mavataj Inc,CA,94111,null,94111,H07
S & P Concessions-MS Marin,Ferry Plaza Pier,945975,7634,San Francisco,37.7944,-122.393,Ferry Plaza Pier,San Francisco,"Mike Sarikakis, Philip Perakis, Dennis Perrakis",CA,94111,null,94111,H07
S & P Concessions-MS San Francisco,Ferry Plaza Pier,945975,7675,SAN FRANCISCO,37.7944,-122.393,Ferry Plaza Pier,San Francisco,"Mike Sarikakis, Philip Perakis, Dennis Perrakis",CA,94111,14155922000,94111,H07
S & P Concessions-MS Sonoma,Ferry Plaza Pier,945975,7698,San Francisco,37.799,-122.4,Ferry Plaza Pier,San Francisco,"Mike Sarikakis, Philip Perakis, Dennis Perrakis",CA,94111,null,94111,H07
S & P Concessions - Del Norte Ferry,Ferry Plaza - Pier 1,945975,7729,San Francisco,37.7944,-122.393,Ferry Plaza Pier,San Francisco,"Mike Sarikakis, Philip Perakis, Dennis Perrakis",CA,94111,null,94111,H07
Frog Hollow Farm Market,1 Ferry Building E-13,370441,8249,San Francisco,37.7952,-122.394,1 Ferry Building E-13,San Francisco,"Frog Hollow Farm Market, LLC",CA,94111,null,94111,H28
Hog Island Oyster Co,1 Ferry Building #11A,365235,8251,San Francisco,37.7952,-122.394,1 Ferry Building #11A,San Francisco,Hog Island Oyster Company,CA,94111,null,94111,H24
Imperial Tea Court,1 Ferry Building #27,314596,8882,San Francisco,37.7952,-122.394,1 Ferry Building #27,San Francisco,Imperial Tea Corporation,CA,94111,null,94111,H24
Marketbar,1 Ferry Building #36,369287,9103,San Francisco,37.7952,-122.394,ONE FERRY BLDG #36,SAN FRNACISCO,MARKETBAR CAFE/RIVA MNGMNT LLC,CA,94111,null,94111,H26
San Francisco Soup Company,275 Battery St,358709,9599,San Francisco,37.7939,-122.4,275 Battery St,San Francisco,San Francisco Soup Company,CA,94111,null,94111,H25
7-Eleven Store 2231-33429A,43 Drumm St,381861,9631,San Francisco,37.7941,-122.397,PO Box 219088,Dallas,Moneshpal Singh Josan & Namarta Josan,TX,75221,null,94111,H07
San Francisco Fish Company,1 Ferry Buiding  #31,369988,9672,San Francisco,37.7952,-122.394,"1 Ferry Building, Suite 31",San Francisco,Allen Kuehn,CA,94111,null,94111,H25
Morning Brew Cafe,401 Sansome St,373086,10083,San Francisco,37.794,-122.401,401 Sansome St,San Francisco,Chhay Chea,CA,94111,null,94111,H24
Ferry Plaza Farmers Market,1 Ferry Building #50,394755,10357,San Francisco,37.7952,-122.394,1 Ferry Building #50,San Francisco,Center For Urban Education About Sustainable Agriculture (CUESA),CA,94111,null,94111,H14
Slanted Door Restaurant,1 Ferry Building #3,937319,10540,San Francisco,37.7952,-122.394,1 Ferry Building #3,San Francisco,"The Slanted Door, Inc",CA,94111,null,94111,H26
Saint Benoit Yogurt,1 Ferry Building #50,472365,11195,San Francisco,null,null,PO Box 1073,Petaluma,Saint Benoit Yogurt Corp,CA,94953,null,94111,H34
Boulette's Larder,1 Ferry Building,382893,11491,San Francisco,37.7952,-122.394,Ferry Building,San Francisco,Boulette's LLC,CA,94111,null,94111,H07
Mijita,1 Ferry Building,380885,11568,San Francisco,37.7952,-122.394,1 Ferry Building,San Francisco,Bean L.L.C.,CA,94111,null,94111,H25
Focaccia Market Bakery,119 Sacramento St A,366925,13831,San Francisco,37.7945,-122.397,119 Sacramento St,San Francisco,"Focaccia Café, Inc",CA,94111,null,94111,H26
Lee's Deli,75 Battery St,147648,14285,San Francisco,37.7919,-122.4,75 Battery St,San Francisco,"Sterling M Enterprises, Inc",CA,94111,null,94111,H26
Eagle Cafe,111 Pine St,450632,14688,San Francisco,37.7923,-122.399,101 Pine St,San Francisco,First Republic Bank,CA,94111,null,94111,H26
Peet's Coffee & Tea,2  Embarcadero Center  #R2113,196325,15752,San Francisco,37.7948,-122.398,"2 Embarcadero Center, Suite R2113",San Francisco,Peet's Coffee & Tea Inc,CA,94111,null,94111,H24
Starbucks Coffee (Store #9743),425 Battery St,911744,16286,San Francisco,37.7954,-122.4,425 Battery St,San Francisco,Starbucks Corporation,CA,94111,null,94111,H25
Tacos San Buena,768 Sansome St,384320,18126,San Francisco,37.7973,-122.402,180 Nyla Ave,South San Francisco,"Santana ESG, Inc",CA,94080,null,94111,H79
Bay Crossings,1 Ferry Building  #22,397703,19225,San Francisco,37.7952,-122.394,1 Ferry Building #22,San Francisco,Nematode Holdings,CA,94111,null,94111,H01
Mercedes Restaurant,653 Commercial St,389801,19440,San Francisco,37.7941,-122.404,653 Commercial,St,Mercedes Cantina Inc,San Francisco,CA,null,94111,H26
Buckhorn Grill,4 Embarcadero Center,324581,20625,San Francisco,37.7951,-122.396,4 Embarcadero Center,San Francisco,"Pickapple, LLC",CA,94111,null,94111,H24
Perbacco,230 California St,395946,21785,San Francisco,37.7934,-122.399,151 BON AIR CENTER,GREENBRAE,GIBIN UMBERTO TERJE STAFFAN H,CA,94904,null,94111,H26
Cafe Destiji,1075 Front St,385976,25374,San Francisco,37.8013,-122.4,1075 Front St,San Francisco,Tamraz Inc,CA,94111,null,94111,H24
SF Bay Club -  Court Commisary,150 Greenwich St,108494,27472,San Francisco,37.8032,-122.403,150 Greenwich St,San Francisco,SF Bay Club Court Café,CA,94111,null,94111,H33
Osha Thai Restaurant & Bar,4 Embarcadero Center  Street Level,433321,27791,San Francisco,37.7951,-122.396,"338 Spear St., #33C",San Francisco,Osha Thai Embarcadero Inc.,CA,94105,null,94111,H26
Hodo Soy Beanery,1 Ferry Building #50,402423,27817,San Francisco,null,null,2923 Adeline Street,Oakland,"Hodo, Inc.",CA,94608,null,94111,H34
Peet's Coffee & Tea,1 California St,196325,32578,San Francisco,37.7936,-122.397,1 California St,San Francisco,Peet's Coffee & Tea,CA,94111,null,94111,H25
Andante Dairy,1 Ferry Building  #50,333524,32715,San Francisco,null,null,1347 Stanyan Street,San Francisco,Soyoung Scanlan,CA,94114,null,94111,H34
Jackson Place Cafe - Commissary,633 Battery St,405249,33011,San Francisco,37.7971,-122.401,633 Battery St,San Francisco,Gabi & Gio LLC,CA,94111,null,94111,H33
Chiaro Scuro,550 Washington St,404014,33012,San Francisco,37.7957,-122.402,550 Washington St,San Francisco,Triofo LLC,CA,94111,null,94111,H26
Jackson Place Cafe - Kiosk,633 Battery St,405249,33054,San Francisco,37.7971,-122.401,633 Battery St,San Francisco,Gabi & Gio LLC,CA,94111,null,94111,H24
Gambino's,1 Embarcadero Center,459118,33190,San Francisco,37.7946,-122.4,1 Embarcadero Center,San Francisco,Ramzi Hihi,CA,94111,null,94111,H24
San Francisco Soup Company,1 California St,358709,33222,San Francisco,37.7936,-122.397,1 California St,San Francisco,San Francisco Soup Company,CA,94111,null,94111,H24
Sushi Kinta,5 Embarcadero Center,414001,33388,San Francisco,37.7942,-122.396,5 Embarcadero Center,San Francisco,Sean Lee,CA,94111,null,94111,H24
Pier 23 Cafe Inc,Pier 23,375394,33747,San Francisco,37.8027,-122.401,Pier 23,San Francisco,Pier 23 Cafe Inc,CA,94111,null,94111,H26
77 Chinese Cuisine,77 Battery St,421676,35659,San Francisco,37.792,-122.4,77 Battery St,San Francisco,"77 Chinese Cuisine, Inc   Ting Lip Yee",CA,94111,null,94111,H24
Sens Restaurant,4 Embarcadero Center  Promenade Level,387631,36213,San Francisco,37.7951,-122.396,"4 Embarcadero Center, Promenade Level",San Francisco,"MCC Restaurants, Inc   Kais Bouzidi",CA,94111,null,94111,H26
Rubio's Fresh Mexican Grill,4 Embarcadero Center  Street Level,344340,36274,San Francisco,37.7951,-122.396,"4 Embarcadero Center, Street Level",San Francisco,Rubio's Fresh Mexican Grill,CA,94111,null,94111,H26
Cafe Insalata,209 Jackson St,423869,36602,San Francisco,37.7969,-122.4,209 Jackson St,San Francisco,Jaehee Chong,CA,94111,null,94111,H25
Jai Yun Restaurant,680 Clay St,330732,37650,San Francisco,37.7946,-122.404,680 Clay St,San Francisco,Chia J Nei,CA,94111,null,94111,H25
Boccalone,1 Ferry Building  #21,428731,38030,San Francisco,37.7952,-122.394,1 Ferry Building #21,San Francisco,"Boccalone, LLC   Mark Pastore",CA,94111,null,94111,H28
La Mar Cebicheria Peruana,Pier 1.5,421230,38106,San Francisco,37.7885,-122.464,Pier 1.5,San Francisco,LM San Francisco LLC   Leah Swgawa,CA,94111,null,94111,H26
Hillstone Restaurant,1800 Montgomery St,312902,38179,San Francisco,37.8056,-122.405,"2710 East Camelback Rd, #200",Phoenix,"Hillstone Restaurant Group, Inc",AZ,85016,null,94111,H26
Regency Club 18th Floor,5 Embarcadero Center  18th Floor,369914,38882,San Francisco,37.7941,-122.396,5 Embarcadero Center,San Francisco,Hyatt Corporation,CA,94111,null,94111,H87
Peet's Coffee & Tea,450 Sansome St Suite #1,196325,39025,San Francisco,37.7946,-122.401,1400 Park Ave,Emeryville,Peet's Coffee & Tea   Pat O'Dea,CA,94608,null,94111,H25
Specialty's Cafe & Bakery,"22 Battery St, Suite D",180332,39047,San Francisco,37.7915,-122.4,"115 Sansome St, Suite 300",San Francisco,Specialty's Cafe & Bakery,CA,94104,null,94111,H25
Specialty's Cafe & Bakery,505 Sansome St,180332,39050,San Francisco,37.7951,-122.402,"115 Sansome St, Suite D",San Francisco,Specialty's Cafe & Bakery,CA,94111,null,94111,H28
The Aventine,582 Washington St,430820,39076,San Francisco,37.7956,-122.403,582 Washington St,San Francisco,"Avantine, LLC   Demetris Chapin-Rienzo",CA,94111,null,94111,H25
5A5 Steak Lounge,244 Jackson St,324777,40185,San Francisco,37.7969,-122.4,244 Jackson St,San Francisco,"Scott Alley Associates, LLC   Albert Chen",CA,94111,null,94111,H26
Cafe Prague,424 Merchant St,312861,57552,San Francisco,37.7954,-122.401,424 Merchant St,San Francisco,Alena Kucera,CA,94111,null,94111,H25
Blue Bottle Coffee,1 Ferry Building  #7,442276,59316,San Francisco,37.7952,-122.394,1 Ferry Building #7,San Francisco,Blue Bottle Ferry Building LLC,CA,94111,null,94111,H28
The Plant Cafe Organic,Pier 3  Suite 108,389602,59922,San Francisco,37.7975,-122.396,Pier 3  Suite 108,San Francisco,Lettus LLC   Mark Lewis,CA,94111,null,94111,H26
Cane Rosso,1 Ferry Building  #41,436791,60318,San Francisco,37.7952,-122.394,1 Ferry Building #41,San Francisco,Canis Major LLC   Lauren Kiino,CA,94111,null,94111,H24
Happy Girl Kitchen Co,1 Ferry Building,469946,60590,San Francisco,null,null,1272 Highway 1,Moss Landing,Todd Champagne,CA,95039,null,94111,H34
Coffee Bean and Tea Leaf,4 Embarcadero Center  #SL9,442422,60787,San Francisco,37.7951,-122.396,4 Embarcadero Center #SL9,San Francisco,"Embarcadero CB, Inc   Robert Azinian",CA,94111,null,94111,H25
Cafe Me,500 Washington St #102,437557,60833,San Francisco,37.7957,-122.402,500 Washington St,San Francisco,Christopher Tsang & Katherine Kuang,CA,94111,null,94111,H24
Stone Korean Kitchen,4 Embarcadero Center  Street Level,442567,61464,San Francisco,37.7951,-122.396,4 Embarcadero Center  Street Level,San Francisco,"Stone Age Group, Inc   Daniel Yoo",CA,94111,null,94111,H25
The Plant Cafe Organic,101 California St,389602,61499,San Francisco,37.7934,-122.398,101 California St,San Francisco,Lettus LLC,CA,94111,null,94111,H26
Yoppi Yogurt,101 California St,459010,61856,San Francisco,37.7934,-122.398,"2489 Whitney Dr., Apt 10",Mountain View,"On the Fly LLC  Dave Hilburn, Lei Derek Tean, Jake Brown, Jason Hui",CA,94043,14155264677,94111,H24
DELICA,1 Ferry Building  #45,367629,61976,San Francisco,37.7952,-122.394,1 FERRY BUILDING #45,SAN FRANCISCO,DELICA IWATA CALIFORNIA,CA,94111,14155830344,94111,H25
Wayfare Tavern,558 Sacramento St,447314,62701,San Francisco,37.7939,-122.402,"558 Sacramento Street, 3rd Floor",San Francisco,Wayfare LP,CA,94111,14150256062,94111,H26
Ferry Building Commissary,1 Ferry Building  #8A,356911,63489,CA,37.7952,-122.394,"1 Ferry Building, Suite 260",San Francisco,Ferry Building Associates LLC,CA,94111,null,94111,H33
Irish Times Bar and Grill,500 Sacramento St,451098,63773,San Francisco,37.7941,-122.401,"330 Townsend Street, Suite 118",San Francisco,"Ashbury Taverns, LLC / John Lillis, Jennifer Lillis",CA,94107,14155373799,94111,H25
Munchboxx,643 Clay St,451385,63971,San Francisco,37.7946,-122.404,619 Mount Vernon Ave.,San Francisco,"Munchboxx, LLC / Peter Wei Xin Wu",CA,94112,14155514286,94111,H25
Travel Traders #3058,5 Embarcadero Center,209731,64073,San Francisco,37.7941,-122.396,"6205 Blue Lagoon Drive, Suite 550",Miami,"Travel Traders Hotel Stores, Inc. / Sean Anderson, CEO; Richard Munhire, CFO",FL,33126,14155781234,94111,H03
Michael Mina Restaurant,252 California St,449025,64380,San Francisco,37.7933,-122.4,252 California Street,San Francisco,"MG-252 Cal, LLC / Michael Mina",CA,94111,14155350791,94111,H26
Hornblower Cruises & Events - SF Spirit,"Pier 3, The Embarcadero",159060,64496,null,37.7946,-122.393,"Pier 3, The Embarcadero",San Francisco,"Hornblower Yachts, Inc. / Terry A. MacRae, President",CA,94111,14155788866,94111,H26
Reveille Coffee,768 Sansome,391705,64723,null,37.7973,-122.402,937 Harrison St,SF,"New England Dough Boys, Inc",CA,94107,null,94111,H79
Locali Mediterranean,98 Battery St #B,454354,64790,San Francisco,37.792,-122.4,621 West J,Benecia,Stephen and Tania Maccoun,CA,94510,null,94111,H24
Breaking Bread Sandwiches,4 Embarcadero Center,454404,64797,San Francisco,37.7951,-122.396,6629 Bellhurst Lane,Castro Valley,"JPMD, LLC / Patrick Totah and Majeda Totah",CA,94552,null,94111,H25
Sidekick,1 Ferry Building  #19,367823,65369,San Francisco,37.7952,-122.394,105 H STREET,PETALUMA,THE COWGIRL CREAMERY INC,CA,94952,null,94111,H28
Fuzio Universal Bistro,1 Embarcadero Center,455279,65371,San Francisco,37.7946,-122.4,"1020 10th St., Ste 300",Modesto,"BellaBean, Inc. / Paul B. Draper, CEO; Jeffrey S. Considine, CFO",CA,95354,null,94111,H26
Subway #25578,99 Drumm St,454128,65580,San Francisco,37.7946,-122.397,1020 Alison Circle,Livermore,"Graceful Foods, Inc. / Namarta Josan",CA,94550,null,94111,H24
Gott's Roadside Tray Gourmet,1 Ferry Building #6,457650,65622,San Francisco,37.7952,-122.394,945 Main Street,St. Helena,"Gott's Partners, LP / Duncan Gott, Joel Gott",CA,94574,null,94111,H26
Le Meridien SF Main Kitchen/Employee Cafeteria,333 Battery St Level A & B,455223,65724,San Francisco,37.799,-122.4,"1997 Annapolis Exchange Parkway, Suite 410",Annapolis,"CHSP TRS San Francisco, LLC  James L. Francis, Douglas W. Vicari, D. Rick Adams, Graham J. Wootten",MD,21401,14155292904,94111,H26
Le Meridien SF Park Grill Restaurant & Bar,333 Battery St Level 2 & 3,455223,65725,San Francisco,37.799,-122.4,"1997 Annapolis Exchange Parkway, Suite 410",Annapolis,"CHSP TRS San Francisco, LLC / James L. Francis, Douglas W. Vicari, D, Rick Adams, Graham J. Wootten",MD,21401,14155292904,94111,H26
Le Meridien San Francisco Lobby Lounge,333 Battery St,455223,65726,San Francisco,37.7944,-122.4,"1997 Annapolis Exchange Parkway, Suite 410",Annapolis,"CHSP TRS San Francisco, LLC / James L. Francis, Douglas W. Vicari, D, Rick Adams, Graham J. Wootten",MD,21401,14155292904,94111,H86
Ziggy's Burger & Grill,21 Drumm St,458698,65925,San Francisco,37.7939,-122.396,24 Yellowstone Way,Pacifica,"Jaffa Sea, LLC / Muhammad Zughaiyir",Ca,94044,null,94111,H25
Sausalito Cafe,655 Montgomery St,459517,66387,San Francisco,37.7953,-122.403,511 Cypress Avenue,Millbrae,Isa E. Qura,CA,94030,null,94111,H24
Lee's Deli,280 Battery St,147648,66695,San Francisco,37.794,-122.4,303 2nd Street,San Francisco,"Sterling M. Enterprises, Inc. / Lee Quan, Sterling Quan",CA,94107,null,94111,H25
Subway Sandwich,5 Embarcadero Center,451320,66934,San Francisco,37.7942,-122.396,"4302 Redwood Hwy, Suite 200",San Rafael,"Letap Acquisitions, Inc. / Chirayu Patel",CA,94903,null,94111,H25
The Melt,1 Embarcadero Center,458135,67176,null,37.7946,-122.4,58 Tehama St,San Francisco,Fish Six Restaurant Corp. / Jonathan Kaplan,CA,94105,null,94111,H25
The Hidden Vine Wine Bar,408 Merchant St,381896,67509,null,37.7954,-122.401,"447 Battery Street, Suite 150",San Francisco,"Magellan Wine, LLC / Alberto De Almeida, Jr., Terra De Almeida",CA,94111,null,94111,H25
Farmhouse Culture,1 Ferry Building  #50,1000541,67543,San Francisco,null,null,303 Potrero Street #01A,Santa Cruz,"Farmhouse Culture, LLC / Kathryn Lukas",CA,95060,14151460499,94111,H34
Prather Ranch Meat Co.,1 Ferry Building  #33,396725,67911,null,37.7952,-122.394,1 Ferry Building #33,San Francisco,"Good Pastures Meat Co., Inc. / Doug Stonebreaker, CEO; Steven McCarthy, CFO",CA,94111,null,94111,H24
"Mariposa Baking Co., Inc.",1 Ferry Building  #32,444549,68013,null,37.7952,-122.394,"5427 Telegraph Avenue, Unit D3",Oakland,"Mariposa Baking Compnay, Inc. / Patricia F. Crane",CA,94609,null,94111,H24
Subway Sandwiches #53761,160 Broadway St,466900,68149,null,37.7987,-122.401,"4302 Redwood Hwy, Suite 200",San Rafael,"Letap Enterprise, Inc. / Chirayu Patel",CA,94903,null,94111,H29
Mixt Greens,475 Sansome St  100-S,465586,68345,San Francisco,37.7946,-122.401,"475 Sansome Street, Suite 100-S",San Francisco,"MG Restaurants, Inc. / David Silverglide",CA,94111,null,94111,H25
BASK,42 Columbus Ave,465951,68356,San Francisco,37.7961,-122.404,1400 43rd Avenue,San Francisco,"COTHIJOLS, INC. / David Cot and Patrick Thillard",CA,94112,null,94111,H25
S & P Concessions - MV Napa,Ferry Plaza Pier,945975,68713,null,null,null,Pier 41,San Francisco,"Michael J. Sarikakis, Philip Perakis",CA,94133,null,94111,H07
S & P Concessions - MV Golden Gate Ferry,Ferry Plaza Pier,945975,68714,null,null,null,Pier 41,San Francisco,"Michael J. Sarikakis, Philip Perakis",CA,94133,null,94111,H07
Starbucks #16839,Pier 1 The Embarcadero,911744,68739,San Francisco,37.7946,-122.393,2401 Utah Avenue South,Seattle,Starbucks Corporation / Brian Ugai,WA,98134,null,94111,H25
"H & H Fresh Fish Company, Inc.",1 Ferry Building  #50,466791,68742,null,null,null,135 Sunride Drive,Scotts Valley,"H & H Fresh Fish Co., Inc. / Heidi Rhodes",CA,95066,null,94111,H34
Vanda Siam Restaurant,668 Sacramento St,469024,68826,San Francisco,37.7937,-122.404,668 SACRAMENTO ST,SAN FRANCISCO,VIANDA SIAM RESTAURANT LLC,CA,94111,null,94111,H25
Chipotle Mexican Grill #1566,50 California St,344493,69006,null,null,null,"1401 Wynkoop Street, Suite 500, Attn: Licensing",Denver,"Chipotle Mexican Grill, Inc.",CO,80202,null,94111,H26
Sushirrito,475 Sansome St #120N,453558,69489,San Francisco,37.7946,-122.401,639 Geary St. #601,San Francisco,"Buddha Boy Foods, Inc. / Peter Yen",CA,94102,null,94111,H28
Fog City,1300 Battery St,481488,69501,San Francisco,null,null,107 Caledonia Street Suite P,Saulsalito,Fog City Diner Inc.,CA,94965,14155982000,94111,H26
Bently Reserve,301 Battery St,400034,69547,null,null,null,"240 Stockton Street, 8th Floor",San Francisco,"Bently Reserve, LP / Christopher Bently and Mark T. Mayfield",CA,94108,null,94111,H26
Drumm Liquors,15 Drumm St,468944,69786,San Francisco,37.7938,-122.396,709 Woodside Way #F,San Mateo,"Drumm Liquors, Inc./ Oussama Mannaa",CA,94401,null,94111,H28
Biscuit Bender,1 Ferry Building   Kiosk #1,458563,69806,null,null,null,328 Guerrero Street,San Francisco,"Biscuit Bender, Inc. / Van C. Dao, Pres. & Sec.",CA,94103,null,94111,H03
Andersen Bread,235 California St,120607,69881,null,37.7933,-122.399,30703 San Clemente Street,Hayward,"Andersen Bakery Incorporated / Nobumitsu Kobayashi, Kazu Suzuki",CA,94544,null,94111,H25
Hong Kee & Kim,91 Drumm St,441374,69962,San Francisco,null,null,259 Seneca Avenue,San Francisco,Hi-Tea Corp. / Li Qing Chen,CA,94124,null,94111,H25
Il Canto Cafe,275 Battery St,471981,70034,San Francisco,null,null,15 Driftwood Court,Pacifica,Sandy A. Clyne,CA,94044,null,94111,H24
Parlor 1255,1255 Battery St Ste. 700,473367,70547,null,null,null,20 Manitou Drive,San Anselmo,"Bauman Enterprises, LLC",CA,94960,null,94111,H24
Crepe & Curry,5 Embarcadero Center,473815,70754,San Francisco,37.7942,-122.396,2539 43rd Avenue,San Francisco,"Tasee, LLC / Mahat Papartassee",CA,94116,null,94111,H24
"Pressed Juicery, LLC",1 Ferry Building,474285,71218,null,null,null,2306 Cotner Avenue,Los Angeles,"Pressed Juicery, LLC / Hayden Slater, Carly Brien, Hedi Gores",CA,90064,null,94111,H03
Coqueta,Pier 5,477135,71292,San Francisco,37.7981,-122.396,"6525 Washington Street, Suite D-2B",Yountville,"Serra Hospitality Group, LLC / Michael Chiarello",CA,9499,null,94111,H26
Hard Water,Pier 3  Suite 102,475092,71460,null,null,null,580 Valencia Street,San Francisco,"Pier Three, LLC / Charles Phan",Ca,94110,null,94111,H25
Cafe Terminus,16 California St,476500,71831,null,null,null,127 Stevenson Street,San Francisco,"Alcyone LLC / Dennis Leary, Eric Passetti",CA,94105,null,94111,H24
Nana Joes Granola,1 Ferry Building  #50,465465,71906,null,null,null,"2565 3rd Street, #338",San Francisco,"Nanajoes, LLC / Michelle Pusateri",CA,94107,null,94111,H34
Sapphire Asian Cuisine,475 Sacramento St,476717,71915,San Francisco,37.7941,-122.401,"1188 Missin Street, Apt. 2209",San Francisco,"J & R Sapphire, Inc.",CA,94103,null,94111,H26
Posh Bagel,4 Embarcadero Center  Street Level,470139,74023,SF,null,null,4 Embarcadero Center,San Francisco,Kristina Ann Lam,CA,94111,14155988688,94111,H25
Andersen Bread,2 Embarcadero Center  R-2203-4,120607,74191,null,null,null,30703 San Clemente Street,Hayward,"Andersen America, Inc.",CA,94544,null,94111,H25
Rancho Gordo San Francisco,1 Ferry Building  #14,478334,74995,null,null,null,1924 Yajome Street,Napa,"Rancho Gordo San Francisco, Inc. / Steven Sando",CA,94559,null,94111,H24
The Battery - Main Kitchen,717 Battery St 1st Floor,464423,75258,null,null,null,387 Tehama Street,San Francisco,"MXB Battery Operations, LP/MXB Partners LLC, General Partner",CA,94103,null,94111,H26
The Battery - Prep Kitchen,717 Battery St Basement,464423,75259,null,null,null,387 Tehama Street,San Francisco,"MXB Battery Operations, LP/MXB Partners LLC, General Partner",CA,94103,null,94111,H26
Craftsman and Wolves,1 Ferry Building  #50,466085,75325,null,null,null,2250 Keith Street,San Francisco,"Outfit Generic, Inc.",CA,94124,null,94111,H34
Onigilly LLC,4 Embarcadero Center,439579,75437,San Francisco,null,null,842 Maple Avenue,San Francisco,Onigilly LLC,CA,94108,null,94111,H24
Tokyo Express Battery,77 Battery St Suite 100,482391,75681,null,null,null,2127 27th Avenue,San Francisco,"JC & DC Restaurant, Inc. / Jung Dong Choi, David Chong",CA,94127,null,94111,H26
Alex Gourmet Burrito,545 Sansome St 207B,482753,75944,null,null,null,1501 Haviland Court,Clayton,Elibabai LLC / Ehsan Haider,CA,94517,null,94111,H24
Mixt Greens,100 California St Suite 103,465586,75965,null,null,null,"475 Sansome Street, Suite 100S",San Francisco,"MG Restaurants, Inc. / David Silverglide",CA,94111,null,94111,H25
Punch Line San Francisco,444 Battery St,447384,76251,null,null,null,"100 Universal City Plaza, Bldg. 5454",Universal City,"Live Nation Worldwide, Inc.",CA,91608-1902,null,94111,H26
Humphry Slocombe,1 Ferry Building,424993,76431,null,null,null,1813 15th Street,San Francisco,"Humphrey Slocombe, LLC / Jake Godby, Sean Vahey",CA,94103,null,94111,H28
Cantina Verde,388 Market St #104,480798,76436,null,null,null,135 Terrace Drive,San Francisco,"Cantina Verde, LLC / David J. Kelley",CA,94127,null,94111,H25
Subway Sandwiches #27662,388 Market St #102,451321,76503,null,null,null,"4302 Redwood Hwy,  #200",San Rafael,"Lower Lake Subway, LLC",CA,94903,null,94111,H29
Landmark Theatres Embarcadero Center,1 Embarcadero Center,484123,76546,null,null,null,2222 S. Barringtron Avenue,Los Angeles,"Cinema Beverages Holding Company, LLC",CA,90064,null,94111,H07
Over the Moon,50 Drumm St,484316,76733,null,null,null,"2790 Erringer Road, #23",Simi Valley,"American Treats, LLC / Brian Horwitz",CA,93065,null,94111,H24
Wingtip,550 Montgomery St 10th Floor,376137,76914,null,null,null,"1385 Greenwich Street, #12",San Francisco,"On the Fly, Inc.",CA,94109,null,94111,H26
Tout Sweet Patisserie,1 Ferry Building  #50,467018,77706,null,null,null,1750 D Cesar Chavez Street,San Francisco,"Tout Sweet Pastry Company, Inc.",CA,94124,14155828688,94111,H34
Subway #61240,425 Battery St,1002458,77840,null,null,null,PO BOX 640900,San Francisco,"Letap Subs, LLC / Chirayu Patel",CA,94164,null,94111,H25
